grid_id	Site	Rarefied.richness.trend	Rarefied.evenness.trend	Cropland.2005_2015	Cropland.trend	Built.2005_2015	Precip.1993_2018	Precip.trend	Temp.1993_2018	Temp.trend	Lon	Lat	EcoI	EcoII
787	Sabino Canyon, AZ._-110.7774_32.3656	0.0660303004673962	-0.031891844142775	0.002485158	0	0.0617453115	29.2506415812681	0.000600479878054559	19.1038464842699	0.0227845171223231	-110.7774	32.3656	SOUTHERN SEMIARID HIGHLANDS	WESTERN SIERRA MADRE PIEDMONT
2909	Blackstone Valley Corridor, MA._-71.6117_42.1243	-0.0568915874478073	0.0532682527770559	0.0180868875	-0.0195798910057912	0.2228992865	104.704489066051	0.0111273184800017	9.72307709852854	0.022113863525084	-71.6117	42.1243	EASTERN TEMPERATE FORESTS	MIXED WOOD PLAINS
836	Bond Swamp National Wildlife Refuge, GA._-83.5765_32.7288	0.0953452037326063	-0.0323307214536948	0.0598840685	-0.108816348372591	0.2090445925	93.4166682530672	-0.000911403138396184	18.3519233419345	-0.00150967606869716	-83.5765	32.7288	EASTERN TEMPERATE FORESTS	SOUTHEASTERN USA PLAINS
2377	Bryn Mawr, PA._-75.3406_40.0689	-0.0290740705742772	0.0348013477035937	0.049495397	-0.0933774319561139	0.6786375475	104.716027452396	0.00683461139637767	11.76955146247	0.0184409935125273	-75.3406	40.0689	EASTERN TEMPERATE FORESTS	SOUTHEASTERN USA PLAINS
2998	Central Franklin Co._-72.5097_42.5795	-0.0347585271527904	-0.0158940745577601	0.0639512245	0.0378020766110056	0.0936446825	104.447758265031	0.0112713087634163	8.08333348841048	0.0179198332312999	-72.5097	42.5795	EASTERN TEMPERATE FORESTS	MIXED WOOD PLAINS
980	Central Savannah River Valley_-81.9261_33.3756	-0.000170868119771659	-0.0833806095903326	0.1341347655	-0.161233343866659	0.288349037	94.4775658715994	0.00202304122974395	18.2919874466383	0.00126208739703313	-81.9261	33.3756	EASTERN TEMPERATE FORESTS	SOUTHEASTERN USA PLAINS
2640	Central Suffolk Co._-72.7536_40.8627	-0.00321136404700922	0.135529360005481	0.0895568065	-0.0339536010845989	0.394280802	101.070193724755	0.00850399274224454	11.7756412185442	0.0209217795001422	-72.7536	40.8627	EASTERN TEMPERATE FORESTS	MISSISSIPPI ALLUVIAL AND SOUTHEAST USA COASTAL PLAINS
2622	Chelsea, MI._-84.0204_42.3181	-0.0801293225530529	0.0132528339608829	0.4379986285	-0.11652339847133	0.07542873	76.7092961852367	0.010377453372991	9.26570529662646	0.00921617128451716	-84.0204	42.3181	EASTERN TEMPERATE FORESTS	MIXED WOOD PLAINS
750	Daingerfield, TX._-94.72_33.03	0.0345073318187964	0.000840144221086308	0.353513467	-0.0444120026388135	0.0527358105	102.866668180013	0.00623725541444478	18.0310900394733	0.000888555758067759	-94.72	33.03	EASTERN TEMPERATE FORESTS	SOUTHEASTERN USA PLAINS
2728	East Haddam, CT._-72.4_41.48	0.132590732427581	0.0474593697790303	0.022574635	-0.0274365637531363	0.044569385	107.180450986593	0.00920624419703769	10.9817309370503	0.0214872466020892	-72.4	41.48	EASTERN TEMPERATE FORESTS	MIXED WOOD PLAINS
985	Francis Marion National Forest, SC._-79.4754_33.1408	0.0944398288689438	-0.159842633478524	0.005080463	-0.0480741682148515	0.0152498995	106.130130052567	0.00595633180268813	18.8608977443133	0.00806312460757025	-79.4754	33.1408	EASTERN TEMPERATE FORESTS	MISSISSIPPI ALLUVIAL AND SOUTHEAST USA COASTAL PLAINS
1867	Lexington, VA._-79.477_37.848	-0.0246282396645999	-0.0904509574042052	0.2749527865	0.113124217023705	0.05701668	89.4503220671263	0.00497705922436456	12.9788463802244	0.00972664530040708	-79.477	37.848	EASTERN TEMPERATE FORESTS	OZARK/OUACHITA-APPALACHIAN FORESTS
2728	Meriden, CT._-72.7448_41.5243	-0.0181018092514621	-0.0170243634120932	0.0470771035	-0.00958918707689668	0.387788138	100.890065938998	0.00835130390388087	10.5625002031477	0.02083167674861	-72.7448	41.5243	EASTERN TEMPERATE FORESTS	MIXED WOOD PLAINS
1110	Mount Magazine, AR._-93.63_35.17	-0.252942901600459	-0.154601471302082	0.1683010585	-0.122662546317259	0.016758615	99.2528864420377	0.00527031496480975	16.8810900113521	0.00358637451098537	-93.63	35.17	EASTERN TEMPERATE FORESTS	OZARK/OUACHITA-APPALACHIAN FORESTS
1266	Nickel Preserve, OK._-94.842_36.0239	-0.128854115251905	-0.296722935567858	0.2428955395	-0.0402970019314439	0.0175416085	97.6544889253684	0.00557622075861065	15.4608976854346	0.00841798961269524	-94.842	36.0239	EASTERN TEMPERATE FORESTS	OZARK/OUACHITA-APPALACHIAN FORESTS
2907	Northampton, MA._-72.6043_42.3751	-0.0325091243308085	0.0520719815268972	0.151100696	0.0570007875406289	0.1874533475	102.996155598225	0.0097346717996934	9.58974378422285	0.0196509174603747	-72.6043	42.3751	EASTERN TEMPERATE FORESTS	MIXED WOOD PLAINS
2639	Northern Westchester Co._-73.6804_41.2012	0.0206978857170326	0.0773793040504009	0.0104777405	-0.0169550038547676	0.1513135365	108.74647628344	0.00925024025569425	11.4846155902084	0.019378759605556	-73.6804	41.2012	EASTERN TEMPERATE FORESTS	MIXED WOOD PLAINS
2999	Northern Worcester Co._-71.8122_42.4333	0.0172538829411881	0.0529958370554062	0.0362208795	-0.0139339786648718	0.1626616155	104.704489066051	0.0111273184800017	9.72307709852854	0.022113863525084	-71.8122	42.4333	EASTERN TEMPERATE FORESTS	MIXED WOOD PLAINS
826	Noxubee National Wildlife Refuge, MS._-88.7929_33.2783	-0.020371603276735	-0.0350109054190661	0.1871030505	-0.11140532279826	0.015739455	117.685578998656	0.00687414080634368	17.5387823421222	0.00303145000019311	-88.7929	33.2783	EASTERN TEMPERATE FORESTS	SOUTHEASTERN USA PLAINS
1203	Ocoee, TN._-84.5755_35.1556	-0.0350353318814966	-0.0304144438673078	0.188103158	0.0401530693346218	0.0299923605	117.394232898186	0.00667699567191258	15.4233976739387	0.000677439509823635	-84.5755	35.1556	EASTERN TEMPERATE FORESTS	OZARK/OUACHITA-APPALACHIAN FORESTS
1364	Putnam Co. East_-85.3167_36.1333	-0.0132983192680676	-0.0448647776139754	0.1266680775	-0.0619547123132215	0.039999357	121.746796935033	0.00888448875613631	14.2814105166457	0.00419157133298225	-85.3167	36.1333	EASTERN TEMPERATE FORESTS	OZARK/OUACHITA-APPALACHIAN FORESTS
1363	Putnam Co. West_-85.6583_36.1545	-0.126097530398504	-0.0835497303140803	0.347622808	0.0101440448422552	0.0748340325	118.439745603464	0.00996303762957708	14.8711541152965	0.00198677870492625	-85.6583	36.1545	EASTERN TEMPERATE FORESTS	SOUTHEASTERN USA PLAINS
1375	Raven Rock State Park, NC._-78.82_35.41	-0.27617423528481	-0.426207384741061	0.4054223985	-0.182696930173602	0.075736721	101.835899224075	0.000418915778675564	16.4448720507133	0.00632985295141682	-78.82	35.41	EASTERN TEMPERATE FORESTS	SOUTHEASTERN USA PLAINS
1032	Rich Mountain_-94.3693_34.6846	0.0141067564137342	-0.0568862858975895	0.0509365585	-0.14940201981529	0.0114851515	111.832373744402	0.00729336277226636	16.1115387405914	0.00214315397072217	-94.3693	34.6846	EASTERN TEMPERATE FORESTS	OZARK/OUACHITA-APPALACHIAN FORESTS
2638	Rockland Co._-74.0531_41.132	-0.0486391624885755	-0.049034038023221	0.00477939	-0.0380798468408265	0.5288111955	110.619553180841	0.00805699564543767	10.429166837667	0.0181358880378755	-74.0531	41.132	EASTERN TEMPERATE FORESTS	SOUTHEASTERN USA PLAINS
2797	Rogue River, MI_-85.6113_43.2629	0.0484914889496655	0.0603813566099004	0.485649639	-0.0293586901600901	0.0790502545	75.3733987533129	0.0130448033320085	8.7294873626043	0.0117667440068453	-85.6113	43.2629	EASTERN TEMPERATE FORESTS	MIXED WOOD PLAINS
2816	Salisbury, CT._-73.4_42	0.157663012063021	-0.156558508796634	0.1144958035	0.00486083590668273	0.0376419225	106.366989166309	0.00983321757569749	8.67243602726226	0.0187188995318242	-73.4	42	NORTHERN FORESTS	ATLANTIC HIGHLANDS
688	Shreveport, LA._-93.7138_32.3692	-0.213929970576753	-0.0963593604453975	0.287184563	-0.0149611686316399	0.285997743	102.900963205558	0.00488882048127788	19.1881413337512	0.00440192962539464	-93.7138	32.3692	EASTERN TEMPERATE FORESTS	SOUTHEASTERN USA PLAINS
2728	Southern New Haven Co._-72.9218_41.3658	-0.0376034849533509	-0.0145244327759327	0.013272659	-0.03636155605316	0.442766832	102.066027580163	0.00963396911316466	11.3740386446604	0.0209186653465869	-72.9218	41.3658	EASTERN TEMPERATE FORESTS	MIXED WOOD PLAINS
2637	Springdale, NJ._-74.8191_41.0732	0.0198173930685405	-0.0663517066186885	0.136896928	-0.00317463641673583	0.0660410165	106.812501772856	0.00898668387401966	9.78750015128977	0.0183212941509963	-74.8191	41.0732	EASTERN TEMPERATE FORESTS	OZARK/OUACHITA-APPALACHIAN FORESTS
1123	Stevenson, AL._-85.8231_34.8541	-0.0389518901790819	0.0419831401763783	0.274392112	0.00357838267908392	0.036635183	127.496156020042	0.00698202092002531	15.4128207849004	-0.00112655750488391	-85.8231	34.8541	EASTERN TEMPERATE FORESTS	OZARK/OUACHITA-APPALACHIAN FORESTS
463	Tallahassee_-84.3045_30.449	0.0199397268126934	-0.143509368416676	0.024738206	-0.200303373139228	0.297107453	130.187822727057	-0.000573784813046686	20.3358977681551	-3.40843998587177e-05	-84.3045	30.449	EASTERN TEMPERATE FORESTS	SOUTHEASTERN USA PLAINS
1264	Tulsa, OK._-95.9224_36.2063	-0.111507482338972	-0.0168799978964413	0.2315279855	-0.0617990728705203	0.531289335	91.4035272590625	0.00842009471723833	16.4185900015709	0.00880477741939225	-95.9224	36.2063	GREAT PLAINS	TEMPERATE PRAIRIES
2995	Vischer Ferry, NY._-73.833_42.7178	0.0617376556164086	0.0870713088137269	0.052858567	-0.0366309115955584	0.583030092	87.991668352714	0.00714720893526047	9.3067309283532	0.0163487497039226	-73.833	42.7178	EASTERN TEMPERATE FORESTS	MIXED WOOD PLAINS
1457	Wake Co._-78.6599_35.8563	-0.0319943891403536	-0.0878590406492303	0.017294135	-0.201117949565713	0.6731615505	95.3285272104236	-2.1213913884578e-05	15.8804489725675	0.00909204903993024	-78.6599	35.8563	EASTERN TEMPERATE FORESTS	SOUTHEASTERN USA PLAINS
1292	Weymouth Woods (Southern Pines), NC._-79.45_35.08	0.586885311828603	0.413262444707944	0.0643432635	-0.202593578615746	0.128978419	99.8714760983219	-0.000253733765466767	16.0285258514759	0.0109416518287434	-79.45	35.08	EASTERN TEMPERATE FORESTS	SOUTHEASTERN USA PLAINS
49	Bentsen-Rio Grande Valley State Park, TX._-98.3135_26.1915	0.0884011147265897	0.020471833151671	0.4262653035	0.0285104560322241	0.4756535985	39.1637827239405	0.00606676327555014	23.7663465218666	0.00719312659317646	-98.3135	26.1915	GREAT PLAINS	TEXAS-LOUISIANA COASTAL PLAIN
51	Brownsville, TX._-97.45_25.93	NA	NA	0.164645412	0.118929090162274	0.5395754755	55.7041676307384	0.00586047205343832	23.746154204393	0.00565237382790154	-97.45	25.93	GREAT PLAINS	TEXAS-LOUISIANA COASTAL PLAIN
50	Santa Ana National Wildlife Refuge, TX._-98.0616_26.1135	0.0748447125289594	0.0925334013006063	0.6685300865	0.224981447529202	0.2884651905	39.1637827239405	0.00606676327555014	23.7663465218666	0.00719312659317646	-98.0616	26.1135	GREAT PLAINS	TEXAS-LOUISIANA COASTAL PLAIN
1227	Big Bear, CA._-116.8249_34.2432	-0.0716059377279458	0.0238453613312191	2.884755e-05	-0.164370726877805	0.0636573	45.3076929465557	-0.00575592469135833	11.2596155710709	0.0205936556471857	-116.8249	34.2432	MEDITERRANEAN CALIFORNIA	MEDITERRANEAN CALIFORNIA
3375	Browder Ridge, OR._-122.0855_44.3158	0.0492726813240768	0.102177031059744	4.97362e-06	-0.218405913563984	0.0040057535	100.507052386514	0.0023376173559821	8.59358990705835	0.0136370426972596	-122.0855	44.3158	NORTHWESTERN FORESTED MOUNTAINS	WESTERN CORDILLERA
2053	Dardenelles, CA._-119.8333_38.3411	0.00185720167798051	0.0706403853508858	0	-0.213636624079893	0.002671887	77.7852578571735	0.000918477936615045	6.47532063037253	0.0178949508189668	-119.8333	38.3411	NORTHWESTERN FORESTED MOUNTAINS	WESTERN CORDILLERA
3373	Eugene, OR._-123.0886_44.0335	0.0786542604944664	-0.0131099019927686	0.308361475	-0.12847531876811	0.375441573	105.843591744988	0.00152765988493595	11.8208335737387	0.0138174002148713	-123.0886	44.0335	MARINE WEST COAST FOREST	MARINE WEST COAST FOREST
1554	Giant Sequoia National Monument South_-118.4833_36	0.154661613332585	0.310754845278815	0.000690894	-0.166978167383887	0.0055428625	54.1615394908362	0.00248223503580396	6.71025650231884	0.0170013875158065	-118.4833	36	NORTHWESTERN FORESTED MOUNTAINS	WESTERN CORDILLERA
3467	Mary's Peak, OR._-123.55_44.51	-0.224810556157294	-0.230516016833817	0.025367974	0.281917816730597	0.026987277	136.323079456886	0.00112939061749592	10.4727566005328	0.0148663927848622	-123.55	44.51	MARINE WEST COAST FOREST	MARINE WEST COAST FOREST
1226	Mount Baden-Powell, CA._-117.77_34.37	0.181686572739367	-0.0721434609467221	0.002684566	-0.161565560671936	0.0218311535	46.6724366823641	-0.00440879259102739	12.9317310192646	0.0199568671662957	-117.77	34.37	MEDITERRANEAN CALIFORNIA	MEDITERRANEAN CALIFORNIA
2564	Mount Lassen_-121.404_40.4609	0.239728555455589	-0.0371514737161953	0	-0.168341307988266	0.0018680955	86.6717966032716	-0.00101439111381607	8.31282064617158	0.0126392034498109	-121.404	40.4609	NORTHWESTERN FORESTED MOUNTAINS	WESTERN CORDILLERA
1554	North Fork Kern River Valley, CA._-118.4706_35.7735	-0.0549425045778627	0.127822186977713	0.002441095	-0.165439215811794	0.014366191	35.831090271664	8.73990902053933e-06	12.7961540550758	0.0163457081819838	-118.4706	35.7735	MEDITERRANEAN CALIFORNIA	MEDITERRANEAN CALIFORNIA
1225	Pasadena, CA._-117.9912_34.173	NA	NA	0.0125895985	-0.0159816395176531	0.426790077	46.6724366823641	-0.00440879259102739	12.9317310192646	0.0199568671662957	-117.9912	34.173	MEDITERRANEAN CALIFORNIA	MEDITERRANEAN CALIFORNIA
2132	Point Reyes, CA._-122.8667_38.0833	-0.017579364513707	0.0592034237535808	0.0580848715	-0.18394056200776	0.014138609	78.2439111942569	0.00198956546777405	14.7291669173118	0.0195208361012963	-122.8667	38.0833	MEDITERRANEAN CALIFORNIA	MEDITERRANEAN CALIFORNIA
660	Portal, AZ._-109.1667_31.85	0.019575787783845	0.0223991847052334	0.0060694395	0.267654083465533	0.0045748265	28.3115389077232	0.0038485205348633	16.0858976902106	0.0217692063207327	-109.1667	31.85	SOUTHERN SEMIARID HIGHLANDS	WESTERN SIERRA MADRE PIEDMONT
596	Ramsey Canyon, AZ._-110.2238_31.424	-0.0958463776299472	-0.0589855079714872	0.0144339515	0.027505364525576	0.029732004	34.2685903960314	0.00169395111201497	16.3333335992617	0.0223820947541426	-110.2238	31.424	SOUTHERN SEMIARID HIGHLANDS	WESTERN SIERRA MADRE PIEDMONT
1224	Santa Ynez Canyon_-118.6044_34.0896	-0.0427749929733586	0.0926867129985432	0.0063687135	0	0.291113388	39.3496801771749	-0.00328330077088141	15.7419875218318	0.0203568539009116	-118.6044	34.0896	MEDITERRANEAN CALIFORNIA	MEDITERRANEAN CALIFORNIA
2216	Sonoma Co._-122.6833_38.3333	-0.250119221767131	0.409589235166124	0.108011879	-0.0295422471254592	0.178143451	78.2439111942569	0.00198956546777405	14.7291669173118	0.0195208361012963	-122.6833	38.3333	MEDITERRANEAN CALIFORNIA	MEDITERRANEAN CALIFORNIA
2390	Yuba Pass, CA._-120.5519_39.6619	-0.0611447551857161	-0.0166012428592144	0.0008995295	-0.158905308387484	0.011190578	92.3775653444135	0.000211587885270657	9.14935912373356	0.015987112884655	-120.5519	39.6619	NORTHWESTERN FORESTED MOUNTAINS	WESTERN CORDILLERA
149	Alva, FL._-81.6726_26.7153	0.0526976824897054	0.0643152662091349	0.220690681	-0.100268787370518	0.366656813	121.162502129873	0.00418736841615085	23.941346568939	0.0171416786788202	-81.6726	26.7153	EASTERN TEMPERATE FORESTS	MISSISSIPPI ALLUVIAL AND SOUTHEAST USA COASTAL PLAINS
417	Archer, FL._-82.3392_29.6667	0.0463863570641024	-0.00899699676511089	0.048183487	-0.130812695636008	0.262716426	112.870194143974	0.00100278488386515	21.1259618569643	0.0115504994275501	-82.3392	29.6667	EASTERN TEMPERATE FORESTS	MISSISSIPPI ALLUVIAL AND SOUTHEAST USA COASTAL PLAINS
41	Big Pine Key, FL._-81.3699_24.6908	-0.0681650878041398	-0.0204892423559594	0	-0.132250579256405	0.043129602	106.844232476675	0.00612173121340527	25.6887824107439	0.0186981796758462	-81.3699	24.6908	TROPICAL WET FORESTS	EVERGLADES
342	Brazos Valley, TX._-96.0502_29.9008	-0.0197376565283699	-0.00705516541773128	0.850939411	0.0135899052944019	0.0201482745	90.8830144176116	0.00672253864433429	21.4916669741655	0.00705260573064546	-96.0502	29.9008	GREAT PLAINS	TEXAS-LOUISIANA COASTAL PLAIN
269	Brevard Co. South_-80.5012_27.8803	0.0031176898283647	0.0325172304557843	0.044702025	-0.125426759400944	0.1635426445	111.472117775526	0.00165126149917949	23.4509619382712	0.0169546298076539	-80.5012	27.8803	EASTERN TEMPERATE FORESTS	MISSISSIPPI ALLUVIAL AND SOUTHEAST USA COASTAL PLAINS
126	Broward Co. North_-80.157_26.2313	-0.108117404901195	-0.119081077222785	0.002734755	-0.133418447504163	0.799537728	140.695515543987	0.00409223442008416	24.7041670664763	0.0182306354015312	-80.157	26.2313	TROPICAL WET FORESTS	EVERGLADES
220	Bullfrog Creek, FL._-82.3351_27.77	NA	NA	0.290801251	-0.0873073475581212	0.397448791	103.882694313924	0.00147174148837585	23.0730772874294	0.0151872154031718	-82.3351	27.77	EASTERN TEMPERATE FORESTS	MISSISSIPPI ALLUVIAL AND SOUTHEAST USA COASTAL PLAINS
296	Cameron Parish, LA._-93.58_29.75	-0.276309499069127	-0.066987914640532	0.0097492765	-0.202637273629539	0.0054064245	117.36602755999	0.00552388869618361	21.0740387378595	0.00779337894826874	-93.58	29.75	EASTERN TEMPERATE FORESTS	SOUTHEASTERN USA PLAINS
1125	Catoosa-Whitfield, GA._-85.0056_34.8749	-0.0802697660560262	-0.0139522012956136	0.262891699	0.0469289532236538	0.1510584985	120.428848057221	0.00622572192012039	15.3766028115717	-0.000135976668229797	-85.0056	34.8749	EASTERN TEMPERATE FORESTS	OZARK/OUACHITA-APPALACHIAN FORESTS
912	Charleston - East, SC._-79.88_32.86	-0.0612881172031726	-0.0194938433652501	0.0029474025	-0.15225866447018	0.382859789	103.231732349222	0.00617628455358223	19.0778849140192	0.00796519362678563	-79.88	32.86	EASTERN TEMPERATE FORESTS	MISSISSIPPI ALLUVIAL AND SOUTHEAST USA COASTAL PLAINS
912	Charleston - South, SC._-80.1_32.72	0.0543562745417996	0.0955606494731266	0.058722144	-0.0459111725438237	0.127824065	103.68301474346	0.00519196041277094	19.034936159085	0.00733135305993716	-80.1	32.72	EASTERN TEMPERATE FORESTS	MISSISSIPPI ALLUVIAL AND SOUTHEAST USA COASTAL PLAINS
459	Choctawhatchee Bay Northwest_-86.4974_30.524	0.146381512866634	0.110882858098012	0.0217897695	-0.193653229778882	0.192415883	136.120835794088	0.004338332889318	19.6387823911814	0.00146573989298804	-86.4974	30.524	EASTERN TEMPERATE FORESTS	MISSISSIPPI ALLUVIAL AND SOUTHEAST USA COASTAL PLAINS
1103	Cleveland County Audubon Society, OK._-97.33_35.19	0.0821700356593816	-0.0134625474725308	0.071252642	-0.115858181293894	0.125500815	78.1185911093385	0.00749159615991518	16.8282053813052	0.00591034136262103	-97.33	35.19	GREAT PLAINS	SOUTH CENTRAL SEMIARID PRAIRIES
104	Coral Gables, FL._-80.269_25.7051	-0.23917859487802	0.113621606655428	0.004360938	-0.132394530519872	0.6151090065	132.594874172257	0.00433157542077788	25.0567311445872	0.0191249224196154	-80.269	25.7051	TROPICAL WET FORESTS	EVERGLADES
124	Corkscrew Swamp Sanctuary, FL._-81.5217_26.3666	-0.0957103113518795	-0.160587822320948	0.2519398205	-0.0753604124585351	0.2301079345	122.155771342608	0.00590796063177656	24.4750004120362	0.0178452603330033	-81.5217	26.3666	EASTERN TEMPERATE FORESTS	MISSISSIPPI ALLUVIAL AND SOUTHEAST USA COASTAL PLAINS
757	Delta National Forest, MS._-90.7558_32.7597	0.00906624656750615	0.0142490223777455	0.439572522	-0.122862294117601	0.011187089	115.981091702596	0.00672597994500888	18.576282333105	0.00200097032446766	-90.7558	32.7597	EASTERN TEMPERATE FORESTS	MISSISSIPPI ALLUVIAL AND SOUTHEAST USA COASTAL PLAINS
267	Disney Wilderness Preserve, FL._-81.4082_28.124	0.165116794687252	0.0297234745401416	0.1844124155	-0.100078344411417	0.167258392	107.751283623469	0.000397336641639341	22.9381414040541	0.0158328608217999	-81.4082	28.124	EASTERN TEMPERATE FORESTS	MISSISSIPPI ALLUVIAL AND SOUTHEAST USA COASTAL PLAINS
1145	El Dorado Nature Center, CA._-118.0869_33.8095	-0.671247798629903	-0.651030290612495	0.0210372855	0	0.864546016	24.8003209136809	-0.00341369999045199	18.0221157349073	0.0208157073793237	-118.0869	33.8095	MEDITERRANEAN CALIFORNIA	MEDITERRANEAN CALIFORNIA
68	Falcon Woodlands, TX._-99.08_26.5	0.010774074258645	0.0618165857511229	0.074598694	0.219266193230412	0.0280199275	38.5743596015307	0.00578438234955345	23.8230772752028	0.00742517586389731	-99.08	26.5	GREAT PLAINS	TAMAULIPAS-TEXAS SEMIARID PLAIN
419	Flagler Co. Northeast_-81.2187_29.5539	0.0810386402125636	-0.0782400128309783	0.0059670715	-0.134806684176977	0.2539820075	109.20929668882	0.000614862711476891	21.6666670456911	0.0135132106544929	-81.2187	29.5539	EASTERN TEMPERATE FORESTS	MISSISSIPPI ALLUVIAL AND SOUTHEAST USA COASTAL PLAINS
367	Goethe State Forest, FL._-82.6394_29.0836	0.0993079737272628	0.0388827062358962	0.0642571085	-0.119459336093151	0.059868982	116.261861226498	0.000847083384224245	21.6682695914537	0.0117571115904281	-82.6394	29.0836	EASTERN TEMPERATE FORESTS	MISSISSIPPI ALLUVIAL AND SOUTHEAST USA COASTAL PLAINS
710	Harris Neck National Wildlife Refuge, GA._-81.3_31.6833	0.0654190392383186	-0.000713739433277802	0.002278976	-0.0550129647713727	0.018681019	99.7884629139533	0.000420317496817461	19.8496797879537	0.00775210021701456	-81.3	31.6833	EASTERN TEMPERATE FORESTS	MISSISSIPPI ALLUVIAL AND SOUTHEAST USA COASTAL PLAINS
294	High Island, TX._-94.47_29.55	-0.391187341849186	-0.357324272468883	0.0411694385	-0.161469401266236	0.007476486	117.161219879985	0.00597884716487089	21.1368592885824	0.00639158772992063	-94.47	29.55	EASTERN TEMPERATE FORESTS	SOUTHEASTERN USA PLAINS
416	High Springs, FL._-82.5846_29.8475	0.0195123006348433	-0.318086653472598	0.4318426595	-0.0394267513660309	0.049464981	114.96602782225	0.000113774664287852	21.1384618985347	0.0092119910928484	-82.5846	29.8475	EASTERN TEMPERATE FORESTS	MISSISSIPPI ALLUVIAL AND SOUTHEAST USA COASTAL PLAINS
175	Highlands Hammock, FL._-81.564_27.4343	0.149212979296556	-0.0354009594595372	0.515026332	-0.0163702086882856	0.1396369085	114.793592002147	0.00230562402032662	23.1980773271658	0.0162171655464818	-81.564	27.4343	EASTERN TEMPERATE FORESTS	MISSISSIPPI ALLUVIAL AND SOUTHEAST USA COASTAL PLAINS
1059	Hobcaw Barony, SC._-79.1645_33.4312	0.0873292543182753	-0.0910434837826913	0.005799896	-0.0477066212948024	0.077557679	106.130130052567	0.00595633180268813	18.8608977443133	0.00806312460757025	-79.1645	33.4312	EASTERN TEMPERATE FORESTS	MISSISSIPPI ALLUVIAL AND SOUTHEAST USA COASTAL PLAINS
293	Houston, TX._-95.3667_29.7333	0.149310329960565	-0.0164337579207397	0.0196685405	-0.157869012318857	0.9439913615	100.518270835663	0.00561692483072859	21.1092951939656	0.00728819911706479	-95.3667	29.7333	GREAT PLAINS	TEXAS-LOUISIANA COASTAL PLAIN
400	Indian Bayou Wildlife Management Area, LA._-91.7088_30.4066	-0.0108697356187012	0.0731555859226583	0.0645768345	-0.22534800531035	0.0091875085	126.664425362379	0.00331602671129209	20.5727567122533	0.00604589811470557	-91.7088	30.4066	EASTERN TEMPERATE FORESTS	MISSISSIPPI ALLUVIAL AND SOUTHEAST USA COASTAL PLAINS
1196	Jackson_-88.7764_35.5513	0.00866040244362043	-0.0686076730769511	0.3167533715	-0.0876623744149981	0.1024035225	115.14391201276	0.00844296624714833	15.5108976666457	0.00337666188049216	-88.7764	35.5513	EASTERN TEMPERATE FORESTS	SOUTHEASTERN USA PLAINS
336	Kerrville, TX._-99.1405_30.0476	0.287733419770702	-0.032317763098638	0.0092558425	-0.159245418317633	0.111616516	56.2644238702189	0.00639317002701873	19.1003208404932	0.00232413637868016	-99.1405	30.0476	GREAT PLAINS	SOUTH CENTRAL SEMIARID PRAIRIES
40	Key West, FL._-81.6968_24.586	0.0695705425928565	-0.016675664637974	0	-0.130762823888477	0.061331321	104.925322181903	0.00662769788195943	25.7211542374048	0.0182141892249725	-81.6968	24.586	TROPICAL WET FORESTS	EVERGLADES
222	Kissimmee Prairie Sanctuary, FL._-80.9813_27.5526	0.0590394268699892	-0.0966082890905944	0.380905804	-0.0535219477576967	0.026891202	111.472117775526	0.00165126149917949	23.4509619382712	0.0169546298076539	-80.9813	27.5526	EASTERN TEMPERATE FORESTS	MISSISSIPPI ALLUVIAL AND SOUTHEAST USA COASTAL PLAINS
705	Lake Blackshear, GA._-83.8869_31.964	-0.483072891996155	-0.533971300046697	0.552457801	-0.159136708156123	0.072708577	101.254489243031	-0.00177211692014464	18.5685900617868	-0.000960113688805431	-83.8869	31.964	EASTERN TEMPERATE FORESTS	SOUTHEASTERN USA PLAINS
1124	Lookout Mountain, GA._-85.3893_34.8074	0.130308886777612	0.0450510184327512	0.2243353905	0.0390613196307613	0.036708861	120.428848057221	0.00622572192012039	15.3766028115717	-0.000135976668229797	-85.3893	34.8074	EASTERN TEMPERATE FORESTS	OZARK/OUACHITA-APPALACHIAN FORESTS
1194	Lower Hatchie_-89.7774_35.6525	0.141144350770985	-0.0343795930912403	0.597877856	-0.132243977668853	0.014062189	108.129809768536	0.00625693600856904	16.1410259103928	0.0018678162940331	-89.7774	35.6525	EASTERN TEMPERATE FORESTS	SOUTHEASTERN USA PLAINS
392	Magnolia, TX._-95.7109_30.2738	0.107901675375284	-0.071685400923995	0.2168856815	-0.0974361108865662	0.1240076295	98.1474374479208	0.00588844918629393	20.8599362052404	0.00542161757744038	-95.7109	30.2738	EASTERN TEMPERATE FORESTS	SOUTHEASTERN USA PLAINS
611	Midland, TX._-102.0279_31.9869	0.0232117536852886	0.0380542605510516	0.236361091	0.0196568793594107	0.1920819475	27.9580132497045	0.00291201120337653	18.7243592509857	0.0134778838305418	-102.0279	31.9869	GREAT PLAINS	SOUTH CENTRAL SEMIARID PRAIRIES
173	Moccasin Wallow_-82.5645_27.5581	-0.309701675524151	0.156129978307647	0.115500058	-0.116215665843703	0.365414236	114.614425228956	0.00173387807442147	23.0432695394907	0.0152393862962277	-82.5645	27.5581	EASTERN TEMPERATE FORESTS	MISSISSIPPI ALLUVIAL AND SOUTHEAST USA COASTAL PLAINS
1361	Nashville South_-86.8667_36.0167	0.0732304801031212	-0.0579323381478276	0.21791534	-0.0953879482938336	0.371830472	108.876925069552	0.00953259610428184	15.5067310338744	0.000324125327456443	-86.8667	36.0167	EASTERN TEMPERATE FORESTS	SOUTHEASTERN USA PLAINS
177	Okeechobee, FL._-80.8282_27.2898	-0.0905087492702951	-0.00793823508027716	0.6921517175	0.0330763783538961	0.0974458975	113.596796861062	0.00363844263934291	23.7993593246509	0.0173610240791158	-80.8282	27.2898	EASTERN TEMPERATE FORESTS	MISSISSIPPI ALLUVIAL AND SOUTHEAST USA COASTAL PLAINS
152	Palm Beach Co. North_-80.1311_26.883	0.0852615315711629	-0.0279452630101647	0.014780167	-0.132505181661045	0.5282536915	134.694232747341	0.00436834712538037	24.3089747245495	0.0178998994447019	-80.1311	26.883	EASTERN TEMPERATE FORESTS	MISSISSIPPI ALLUVIAL AND SOUTHEAST USA COASTAL PLAINS
126	Palm Beach Co. South_-80.1466_26.4391	0.0327503558452508	-0.0936122403475421	0.0311080545	-0.118671818358695	0.715463367	140.695515543987	0.00409223442008416	24.7041670664763	0.0182306354015312	-80.1466	26.4391	TROPICAL WET FORESTS	EVERGLADES
1145	Palos Verdes, CA._-118.3667_33.7333	0.0636332891675726	-0.00810388233026647	0.010290185	0	0.323307346	24.8003209136809	-0.00341369999045199	18.0221157349073	0.0208157073793237	-118.3667	33.7333	MEDITERRANEAN CALIFORNIA	MEDITERRANEAN CALIFORNIA
103	Pinecrest (Tri-Co.)_-80.9256_25.7553	0.0218427635272581	-0.014396347303742	2.685715e-05	-0.133788162458033	0.002277886	129.630130978731	0.00544827112915155	25.0189105853056	0.0185497973523261	-80.9256	25.7553	TROPICAL WET FORESTS	EVERGLADES
82	Shark Valley, Everglades National Park, FL._-80.675_25.6667	-0.119059560854522	0.165158679095784	0.0006923115	-0.132562237192252	0.0021886495	129.630130978731	0.00544827112915155	25.0189105853056	0.0185497973523261	-80.675	25.6667	TROPICAL WET FORESTS	EVERGLADES
1202	Soddy-Daisy, TN._-85.15_35.2933	-0.11943700774963	-0.113687486857067	0.1361576475	-0.042364652639953	0.077788007	120.85929694084	0.00819883678219933	15.1355771938196	0.0019135203784825	-85.15	35.2933	EASTERN TEMPERATE FORESTS	OZARK/OUACHITA-APPALACHIAN FORESTS
618	Somervell County, TX._-97.8_32.23	-0.116156606155247	-0.0576344928059081	0.035346977	-0.150289476134295	0.040015684	69.9698727816725	0.00667257660539436	18.8173080208974	-0.00307815578658175	-97.8	32.23	GREAT PLAINS	SOUTH CENTRAL SEMIARID PRAIRIES
267	Split Oak/Moss Park, FL._-81.2321_28.3482	0.0908493262611877	-0.0694918865955049	0.1217872505	-0.113311375819077	0.3040464465	107.751283623469	0.000397336641639341	22.9381414040541	0.0158328608217999	-81.2321	28.3482	EASTERN TEMPERATE FORESTS	MISSISSIPPI ALLUVIAL AND SOUTHEAST USA COASTAL PLAINS
402	St. Tammany Parish, LA._-90.42_30.42	-0.184554835375769	0.377833827243949	0.0309217555	-0.218771652935384	0.130385163	129.947758910748	0.00342133976340083	20.4849362144103	0.00459592845913486	-90.42	30.42	EASTERN TEMPERATE FORESTS	MISSISSIPPI ALLUVIAL AND SOUTHEAST USA COASTAL PLAINS
439	Stillhouse Hollow, TX._-97.6_30.9667	-0.0783521762405868	-0.0888900374668632	0.0543002745	-0.151595994403176	0.0562594515	70.0891036402721	0.00581639789772811	19.7208336010957	0.00187474949927403	-97.6	30.9667	GREAT PLAINS	SOUTH CENTRAL SEMIARID PRAIRIES
221	Walk-in-the-Water, FL._-81.3667_27.85	0.126426936589343	0.0576535869991926	0.150892729	-0.103812883731986	0.0868665185	109.823398973697	0.00175514849551485	23.2192311745424	0.0167499032564293	-81.3667	27.85	EASTERN TEMPERATE FORESTS	MISSISSIPPI ALLUVIAL AND SOUTHEAST USA COASTAL PLAINS
319	Wekiva River, FL._-81.3667_28.7833	0.0965002701220522	-0.0438760436598451	0.018845718	-0.129503918865572	0.4349755285	109.970194159792	-0.000794576182069488	22.5929491030864	0.0154724119312952	-81.3667	28.7833	EASTERN TEMPERATE FORESTS	MISSISSIPPI ALLUVIAL AND SOUTHEAST USA COASTAL PLAINS
3121	Beartooth Butte, WY._-109.6_44.93	0.0136180093213061	-0.0499404374336842	0.0009704025	-0.101262150980098	0.0043618995	39.0842955066608	0.00643442432140547	2.15384617254425	0.0131903370795694	-109.6	44.93	NORTHWESTERN FORESTED MOUNTAINS	WESTERN CORDILLERA
2077	Cal-Wood Outdoor Learning Center, CO._-105.3902_40.15	0.0839054134067597	-0.107186318043508	0.011047622	-0.123302066707276	0.00824031	37.3903853037418	0.00105824040584984	7.77692322086734	0.0130535331181615	-105.3902	40.15	NORTHWESTERN FORESTED MOUNTAINS	WESTERN CORDILLERA
2076	Gilpin Co._-105.4105_39.8309	-0.084383366180221	0.0734369735138015	0	-0.12604640119511	0.02441849	37.2557698755692	0.00284773350138185	6.94070525801717	0.0150260034025822	-105.4105	39.8309	NORTHWESTERN FORESTED MOUNTAINS	WESTERN CORDILLERA
2160	Rocky Mountain National Park, CO._-105.62_40.35	NA	NA	0.002830419	-0.115944353784582	0.019030481	35.8221159317555	0.0038061721916962	1.27756413315924	0.0118649751345114	-105.62	40.35	NORTHWESTERN FORESTED MOUNTAINS	WESTERN CORDILLERA
1247	Santa Fe, NM._-105.8488_35.7184	-0.0210804010775506	0.0652213421928723	0.000100467	0	0.0303546605	38.7894237552507	0.00351660043963642	7.59391041572851	0.0123305819781103	-105.8488	35.7184	NORTHWESTERN FORESTED MOUNTAINS	WESTERN CORDILLERA
3208	Yellowstone National Park_-110.6996_44.9764	-0.0580108447683906	-0.0366817486818797	0.0001651325	-0.134470790756873	0.004685383	46.7750007005838	0.00685685625114118	3.27820515570541	0.0118177996054049	-110.6996	44.9764	NORTHWESTERN FORESTED MOUNTAINS	WESTERN CORDILLERA
1706	Dismal Swamp, VA._-76.483_36.6718	0.0344861130832259	-0.0244707052965889	0.0929093885	-0.156778471822808	0.0529726875	99.7201941120319	0.00245057521415473	15.886538730791	0.0118838181451957	-76.483	36.6718	EASTERN TEMPERATE FORESTS	MISSISSIPPI ALLUVIAL AND SOUTHEAST USA COASTAL PLAINS
3439	Algonquin Park, ON, Canada._-78.4_45.5667	0.0257073916626196	0.0829860340475779	0	0	0.002217209	79.4817322767698	0.0121993378048876	4.17339750307684	0.0150353748053352	-78.4	45.5667	NORTHERN FORESTS	MIXED WOOD SHIELD
3021	Boise Front, ID._-116.144_43.7127	0.0206924835890741	-0.0826066750136226	0.0127238575	-0.130332661306148	0.066644323	36.3653851451161	0.000992422741456809	9.82692326801136	0.00955668786744573	-116.144	43.7127	NORTHWESTERN FORESTED MOUNTAINS	WESTERN CORDILLERA
3668	Five Valleys, MT._-114.0312_46.9145	-0.10542965820458	0.0934130799203063	0.1215038275	0.036467538211757	0.157686593	31.5339748576666	0.00430089871188114	6.26955140525332	0.0119238267055239	-114.0312	46.9145	NORTHWESTERN FORESTED MOUNTAINS	WESTERN CORDILLERA
2797	Greater Muskegon, MI._-86.1643_43.2342	0.0439927229099968	-0.00300235650912867	0.0645120895	-0.124553031650535	0.3482182565	72.1907063997709	0.0136067147330251	9.00224377766538	0.0122420230770461	-86.1643	43.2342	EASTERN TEMPERATE FORESTS	MIXED WOOD PLAINS
2092	Indian Cave State Park, NE._-95.6149_40.3151	-0.033091419808874	-0.00235996179195332	0.813824851	-0.0698322273554533	0.0243248365	67.2849371829906	0.00529803622621395	11.8868591954024	0.00792911040253865	-95.6149	40.3151	GREAT PLAINS	TEMPERATE PRAIRIES
3443	Manion Corners, ON, Canada._-76.0653_45.2565	0.00710296816826901	-0.155343986358218	0.368140557	0.0258437613038591	0.0371310435	69.784296084673	0.0114593941248687	6.10224373438037	0.015774952207399	-76.0653	45.2565	EASTERN TEMPERATE FORESTS	MIXED WOOD PLAINS
3376	Metolius, OR._-121.64_44.4733	-0.0556986892873547	-0.0478780092570672	0.0009610885	-0.216531198821218	0.008144654	72.834296357603	0.00357651112602679	6.28108988838414	0.0138741544515393	-121.64	44.4733	NORTHWESTERN FORESTED MOUNTAINS	WESTERN CORDILLERA
1783	Peaks of Otter, VA._-79.61_37.4456	-0.0159359310326805	-0.00114916001708003	0.201851482	0.0691145108806992	0.0293967795	92.4128219880737	0.00530360979418442	14.141346392174	0.0120431278903732	-79.61	37.4456	EASTERN TEMPERATE FORESTS	OZARK/OUACHITA-APPALACHIAN FORESTS
4562	Saskatoon East_-106.5274_52.1368	0.0136011614610131	0.0328370425704826	0.6473217385	0.00207699872905287	0.225099195	31.0625005905063	0.00490512939723312	2.45608980571612	0.0129489076688597	-106.5274	52.1368	GREAT PLAINS	WEST-CENTRAL SEMIARID PRAIRIES
2879	Trempealeau, WI._-91.4112_44.0701	-0.00270796789768257	0.00888965230643327	0.4579762555	-0.0809528454037214	0.02924403	69.6794883135038	0.00499177119520967	7.87564114884784	0.011124440569976	-91.4112	44.0701	EASTERN TEMPERATE FORESTS	MIXED WOOD PLAINS
2176	Waubonsie, IA._-95.7401_40.7662	-0.0188586117883058	-0.0049119006760003	0.822354878	-0.0725592388302972	0.024913174	68.118270426917	0.00605310405323426	10.8717950759217	0.00384259020639912	-95.7401	40.7662	GREAT PLAINS	TEMPERATE PRAIRIES
3293	Yellow Pine, ID._-115.4847_44.9265	-0.0760193424904073	-0.124063393757797	0	-0.129334633623537	0.001128951	41.1775649606417	0.00173218999061455	3.64102570289889	0.0109081470176442	-115.4847	44.9265	NORTHWESTERN FORESTED MOUNTAINS	WESTERN CORDILLERA
1848	Busch Conservation Area, MO._-90.74_38.7051	0.110328164222363	0.0615931477402441	0.1782987735	-0.189938090236417	0.324213577	84.2586553738667	0.00530017752151424	13.523397696706	0.00672656957115125	-90.74	38.7051	EASTERN TEMPERATE FORESTS	SOUTHEASTERN USA PLAINS
694	Clinton, MS._-90.32_32.33	0.270148052947369	-0.0528676867711503	0.301823284	-0.109942410108859	0.280258017	116.025643216876	0.00749858464737901	18.7080131264833	0.00056865662538586	-90.32	32.33	EASTERN TEMPERATE FORESTS	SOUTHEASTERN USA PLAINS
1024	Great Plains State Park, OK._-98.9873_34.7387	0.0638662316406716	-0.0929613128044746	0.4582331555	0.0439879465445413	0.0205891655	59.4365393958795	0.00259359761303582	17.2012822841987	0.00647111274743024	-98.9873	34.7387	GREAT PLAINS	SOUTH CENTRAL SEMIARID PRAIRIES
1764	Shaw Nature Reserve_-90.8192_38.4668	0.029096774626934	-0.136881085776471	0.278294064	0.0494848698780044	0.0810077935	89.0842964679767	0.00607096454045639	13.5464745812023	0.00461899380183781	-90.8192	38.4668	EASTERN TEMPERATE FORESTS	OZARK/OUACHITA-APPALACHIAN FORESTS
2452	Akron, OH._-81.5637_41.0605	0.0646131237173619	-0.0991659704854631	0.083159561	-0.109637840701722	0.7017007605	85.6907067360022	0.00879799460281317	10.0990386374343	0.00955518985571809	-81.5637	41.0605	EASTERN TEMPERATE FORESTS	MIXED WOOD PLAINS
2619	Allegan, MI._-86.0074_42.5492	-0.0334929540625262	0.0219020079696074	0.205890636	-0.164088556148099	0.0480243595	77.3384628081933	0.0126950281666088	9.52403866931892	0.0097194968528958	-86.0074	42.5492	EASTERN TEMPERATE FORESTS	MIXED WOOD PLAINS
2623	Ann Arbor City, MI._-83.7066_42.2805	-0.0194318901001966	0.0188171089661059	0.309908276	-0.195524262488518	0.4423582245	74.2250012205197	0.0117156535868668	10.0791668536571	0.0104238043642549	-83.7066	42.2805	EASTERN TEMPERATE FORESTS	CENTRAL USA PLAINS
1426	Arkansas City, KS._-97.0385_37.0412	0.243678895663031	-0.0258049720801522	0.4376245965	-0.102949283973117	0.0538359095	75.6564114773885	0.00704454203468745	15.2474361172137	0.0108273832190661	-97.0385	37.0412	GREAT PLAINS	SOUTH CENTRAL SEMIARID PRAIRIES
1534	Ashe County, NC._-81.45_36.4	-0.211093190981818	0.0728895249993091	0.136447218	0.268740601520381	0.055242343	99.5054505459773	-0.000240581920384945	13.2022438309609	0.00944378885903467	-81.45	36.4	EASTERN TEMPERATE FORESTS	OZARK/OUACHITA-APPALACHIAN FORESTS
2365	Ashland Co._-82.3393_40.7191	-0.0130349604390528	-0.0565525150860808	0.5136652465	-0.0333584823422063	0.0445043735	87.2195527064495	0.00739040222187424	10.002884801525	0.00680885584502251	-82.3393	40.7191	EASTERN TEMPERATE FORESTS	MIXED WOOD PLAINS
2110	Aullwood Audubon Center and Farm, OH._-84.2754_39.8732	0.0525081569772388	0.0547129473587143	0.447237991	-0.158105164535855	0.4174776205	87.5881426150982	0.00830288288412306	11.710897635167	0.00643112653185988	-84.2754	39.8732	EASTERN TEMPERATE FORESTS	CENTRAL USA PLAINS
2711	Bald Mountain Recreation Area, MI._-83.21_42.75	0.0672160383956322	-0.144179583222963	0.099918556	-0.14115733148095	0.520373017	72.4057703904617	0.012567447760099	9.22788477283067	0.0119444304927457	-83.21	42.75	EASTERN TEMPERATE FORESTS	MIXED WOOD PLAINS
2791	Baraboo, WI._-89.7387_43.4891	0.0646413323473109	-0.0689087443024852	0.44210742	-0.114848453969593	0.0553708555	74.3355784102892	0.00742078202138149	7.82435908371535	0.00863357167476576	-89.7387	43.4891	EASTERN TEMPERATE FORESTS	MIXED WOOD PLAINS
2378	Barnegat, NJ._-74.2231_39.7533	0.0682084016568993	0.200064821601791	0.001400683	-0.119720533124688	0.1989563275	102.343271059868	0.0031957801552968	12.648397650498	0.0195819271093444	-74.2231	39.7533	EASTERN TEMPERATE FORESTS	MISSISSIPPI ALLUVIAL AND SOUTHEAST USA COASTAL PLAINS
1866	Bath Co._-79.8028_38	0.0260263566966932	-0.0492220032212489	0.0380989485	0.28044997165642	0.0224738435	102.308014594592	0.00319897387387107	10.5942309604576	0.00789284051603659	-79.8028	38	EASTERN TEMPERATE FORESTS	OZARK/OUACHITA-APPALACHIAN FORESTS
3059	Beaver Creek Reserve, WI._-91.2701_44.8134	0.0545684363357541	0.14975267100538	0.4439800265	-0.0839185164913558	0.0300385265	69.7852575083574	0.00577996553331913	7.32532065810683	0.011189438446277	-91.2701	44.8134	EASTERN TEMPERATE FORESTS	MIXED WOOD PLAINS
3601	Bemidji, MN._-94.8837_47.4601	0.0562264999352294	-0.0464929332671802	0.2426530765	-0.130301885075173	0.075184693	57.846795995266	0.0101261509885369	5.06121807201551	0.014181905202849	-94.8837	47.4601	NORTHERN FORESTS	MIXED WOOD SHIELD
1941	Big Oaks National Wildlife Refuge, IN._-85.4167_38.9333	-0.130384252469607	-0.0726269535320917	0.339927857	-0.00114103777312128	0.022333365	103.545194256	0.00892784656777196	12.8605771438004	0.00525337581091635	-85.4167	38.9333	EASTERN TEMPERATE FORESTS	CENTRAL USA PLAINS
2813	Binghamton, NY._-75.9_42.1167	-0.00721846124694044	-0.176866144203328	0.140025718	-0.035460256766095	0.244711196	90.350321947	0.012162218625726	8.67179502924092	0.0114523772127927	-75.9	42.1167	EASTERN TEMPERATE FORESTS	MIXED WOOD PLAINS
2781	Blue Mounds, MN._-96.1127_43.7035	-0.0525645407468147	0.046593385997031	0.9407230135	-0.0111005488512187	0.031433287	59.6836550306433	0.00651519838485534	7.40705141523041	0.00805909947765093	-96.1127	43.7035	GREAT PLAINS	TEMPERATE PRAIRIES
3507	Bluestem, MN._-96.4734_46.8552	0.0580060615604599	-0.0560427306973719	0.8828263215	0.0368044162477792	0.025721037	53.3817317067431	0.00670544859766062	5.43878219539347	0.013062608833831	-96.4734	46.8552	GREAT PLAINS	TEMPERATE PRAIRIES
2912	Brewster, MA._-70.0167_41.7833	0.178543865874268	-0.151899020120397	0.0011400105	-0.0394596209911606	0.156804609	113.781091823028	0.0100556214640543	11.2637822591246	0.022462654281769	-70.0167	41.7833	EASTERN TEMPERATE FORESTS	MISSISSIPPI ALLUVIAL AND SOUTHEAST USA COASTAL PLAINS
2820	Bristol Co._-70.9679_41.6326	-0.0329441609967389	-0.0278434550250379	0.025851059	-0.0907813335907455	0.2440102915	107.361220116799	0.00963963229073105	11.0737181252872	0.0224330692833279	-70.9679	41.6326	EASTERN TEMPERATE FORESTS	MIXED WOOD PLAINS
2895	Cambridge (rare Charitable Research Reserve), ON._-80.355_43.3817	0.113633949576184	0.128402564838334	0.4670989315	-0.104287692274122	0.220492506	79.1500014219529	0.0138719423536933	7.98814114159307	0.012931498737365	-80.355	43.3817	EASTERN TEMPERATE FORESTS	MIXED WOOD PLAINS
2210	Cape May, NJ._-74.8667_39.0167	-0.000223170698001661	0.0436558135134686	0.024781629	-0.0779090952187442	0.168750639	94.4894246260325	0.00214064643234218	13.0878207295035	0.0167319571524406	-74.8667	39.0167	EASTERN TEMPERATE FORESTS	MISSISSIPPI ALLUVIAL AND SOUTHEAST USA COASTAL PLAINS
3255	Carden, ON, Canada._-79.05_44.6333	0.146034389199283	0.152518313837148	0.291867542	-0.0337828748177687	0.0158129385	90.0192325909932	0.0148007145374398	6.39423088738934	0.0150486476457896	-79.05	44.6333	EASTERN TEMPERATE FORESTS	MIXED WOOD PLAINS
2906	Central Berkshire Co._-73.2537_42.4086	0.0667203512329814	0.0195896732506835	0.04489941	-0.0177897462107629	0.124157798	106.366989166309	0.00983321757569749	8.67243602726226	0.0187188995318242	-73.2537	42.4086	NORTHERN FORESTS	ATLANTIC HIGHLANDS
3601	Central Polk Co._-95.3658_47.595	0.111537154560018	-0.0928307553715655	0.3959908245	-0.0859274954869141	0.0232879605	54.8583341987851	0.00942126178225347	4.38205138973605	0.0141996259868648	-95.3658	47.595	NORTHERN FORESTS	MIXED WOOD SHIELD
3601	Central Polk County, MN._-95.37_47.6	-0.0217550959860857	-0.143859220631883	0.6475187095	0.025330007864428	0.0285202455	54.8583341987851	0.00942126178225347	4.38205138973605	0.0141996259868648	-95.37	47.6	NORTHERN FORESTS	MIXED WOOD SHIELD
2077	Chatfield Nature Preserve, CO._-105.17_39.88	0.11815093880096	-0.00466252163492093	0.038455236	-0.099188026378321	0.342447494	37.2557698755692	0.00284773350138185	6.94070525801717	0.0150260034025822	-105.17	39.88	GREAT PLAINS	SOUTH CENTRAL SEMIARID PRAIRIES
2714	Clear Creek, ON, Canada_-81.7729_42.5147	0.142056118278121	0.000886903307904668	0.8348977245	-0.0248125378454945	0.0243085065	82.0179501191164	0.0148684043523584	8.96346166068449	0.0108466002385823	-81.7729	42.5147	EASTERN TEMPERATE FORESTS	MIXED WOOD PLAINS
2999	Concord, MA._-71.4167_42.4333	-0.021032778958272	0.0897390289417501	0.0175116225	-0.0273798639129208	0.30064586	103.673719944098	0.0104287739483499	10.5205130023547	0.02238274792999	-71.4167	42.4333	EASTERN TEMPERATE FORESTS	MIXED WOOD PLAINS
3515	Cornucopia, WI._-91.0932_46.8037	0.084576022222265	0.0181432652505112	0.0118419875	-0.143209722322934	0.016902518	65.9195523972695	0.0106830051793274	4.70000006053119	0.0138497858841756	-91.0932	46.8037	NORTHERN FORESTS	MIXED WOOD SHIELD
3235	Crex Meadows, WI._-92.6062_45.8455	0.0548307937621286	0.00148877831845586	0.166590715	-0.15242954001223	0.018787267	62.8237188412593	0.00823682164514053	6.96378216484132	0.0134222877987127	-92.6062	45.8455	NORTHERN FORESTS	MIXED WOOD SHIELD
3510	Deep Portage, MN._-94.3849_46.8995	0.0274220263186503	-0.0445086980910597	0.0351527145	-0.171506205677764	0.020508469	60.3310908384812	0.00887517143404781	5.92916675936431	0.014932703502737	-94.3849	46.8995	NORTHERN FORESTS	MIXED WOOD SHIELD
2524	Dubuque, IA._-90.7_42.4833	0.120594970214551	0.0827283793192186	0.4741750605	-0.129912755642142	0.173118987	82.5038476219544	0.0108070604463318	9.33397455403629	0.00963410807991852	-90.7	42.4833	EASTERN TEMPERATE FORESTS	MIXED WOOD PLAINS
2287	East Bedford Co._-78.6167_40.1167	0.0555979413078962	0.0450260035722302	0.313439507	-0.0347814749118656	0.048419358	105.075642671341	0.00396768035667421	10.0907053349969	0.00948947188713135	-78.6167	40.1167	EASTERN TEMPERATE FORESTS	OZARK/OUACHITA-APPALACHIAN FORESTS
2818	East Glastonbury, CT._-72.5333_41.6667	-0.069744470898173	0.0649311266102971	0.0413121515	-0.0122775854961262	0.231545532	100.890065938998	0.00835130390388087	10.5625002031477	0.02083167674861	-72.5333	41.6667	EASTERN TEMPERATE FORESTS	MIXED WOOD PLAINS
3246	Emmet and Cheboygan Counties, MI._-84.7508_45.4345	0.081378446962325	0.0820548027743324	0.0960457655	-0.110199082209854	0.054726315	65.4294882523708	0.0111084375112321	6.30833345799683	0.0112636552745017	-84.7508	45.4345	NORTHERN FORESTS	MIXED WOOD SHIELD
2821	Falmouth, MA._-70.585_41.6095	-0.00122872869183354	0.0623364910943096	0.006883884	-0.0956402076608272	0.263534713	107.361220116799	0.00963963229073105	11.0737181252872	0.0224330692833279	-70.585	41.6095	EASTERN TEMPERATE FORESTS	MISSISSIPPI ALLUVIAL AND SOUTHEAST USA COASTAL PLAINS
2817	Farmington Valley, CT._-72.8674_41.8169	0.02276236868616	-0.11486715091357	0.022676004	-0.021036139883184	0.241163196	100.890065938998	0.00835130390388087	10.5625002031477	0.02083167674861	-72.8674	41.8169	EASTERN TEMPERATE FORESTS	MIXED WOOD PLAINS
3263	Ferrisburg, VT._-73.25_44.22	-0.0207814052034895	-0.0594971940033745	0.430795388	0.131511517098024	0.0298636065	80.6737195039407	0.0130844888026561	7.63910266458511	0.017879069326757	-73.25	44.22	EASTERN TEMPERATE FORESTS	MIXED WOOD PLAINS
2968	Gilmanton, WI._-91.6788_44.4221	-0.0337509005798332	-0.0441252017278595	0.4809094895	-0.0637097517653347	0.0155852425	69.1387832424579	0.00614055256217811	7.83205142877518	0.00951204393792569	-91.6788	44.4221	EASTERN TEMPERATE FORESTS	MIXED WOOD PLAINS
1938	Goose Pond_-87.2317_39.031	0.0976230505968205	0.0514183070643273	0.4612343735	-0.176166505104206	0.052968627	97.1839761978541	0.00947430824782425	12.6740386758764	0.00861480363373628	-87.2317	39.031	EASTERN TEMPERATE FORESTS	SOUTHEASTERN USA PLAINS
2799	Gratiot-Saginaw, MI._-84.409_43.2486	0.0357527748080373	0.0624292448680256	0.650089529	-0.189569913859961	0.024742542	67.3442317644755	0.0120759775144005	8.76858992490153	0.0121366146770999	-84.409	43.2486	EASTERN TEMPERATE FORESTS	CENTRAL USA PLAINS
2550	Great Swamp, NJ._-74.4624_40.78	0.0472507550552698	0.0629042410094375	0.021059254	-0.0743530689325528	0.4547331135	105.190386533737	0.00805747542009713	12.1413463465153	0.0199966764104265	-74.4624	40.78	EASTERN TEMPERATE FORESTS	SOUTHEASTERN USA PLAINS
2354	Green River Wildlife Area, IL._-89.5161_41.585	-0.0841951290323756	0.0642009611711251	0.9423656005	-0.00529038483859937	0.022963797	81.4237192196724	0.00789794928733822	9.74198736173984	0.00627287049346057	-89.5161	41.585	EASTERN TEMPERATE FORESTS	CENTRAL USA PLAINS
3255	Haliburton Highlands, ON, Canada._-78.6833_44.8833	0.124815047063489	0.12448645104866	0.013107556	-0.133997609273914	0.020566291	86.0092963499901	0.0139893590455973	5.93910267686424	0.014635489854773	-78.6833	44.8833	NORTHERN FORESTS	MIXED WOOD SHIELD
2815	Halls Mills, NY._-74.5859_41.8927	-0.153307496432687	-0.0834158634374671	0.017185771	-0.0478767409789609	0.019240334	104.506411913114	0.00913020514559256	8.47980784462431	0.0156161794576793	-74.5859	41.8927	NORTHERN FORESTS	ATLANTIC HIGHLANDS
2461	Hawk Mountain, PA._-75.9167_40.5833	-0.0398774880057089	-0.0244775530503984	0.484317079	-0.0197966465545694	0.0570737235	101.068591539676	0.00760098170847153	10.3849360696876	0.016836002800636	-75.9167	40.5833	EASTERN TEMPERATE FORESTS	OZARK/OUACHITA-APPALACHIAN FORESTS
2462	Hendricks, PA._-75.47_40.33	-0.0699319554545896	0.0855728231898526	0.3317597145	0.0212839114688723	0.206052084	104.716027452396	0.00683461139637767	11.76955146247	0.0184409935125273	-75.47	40.33	EASTERN TEMPERATE FORESTS	SOUTHEASTERN USA PLAINS
2533	Hillsdale, MI._-84.593_41.8544	0.0104189344625397	0.0645777920670294	0.6650013885	-0.212289629028679	0.0578139915	82.4496808877358	0.00962736764295905	9.58397453416807	0.00923366171583808	-84.593	41.8544	EASTERN TEMPERATE FORESTS	MIXED WOOD PLAINS
3535	Hog Island, ON, Canada._-76.9158_45.842	0.0784741738356115	0.0569446318294917	0.270013895	0.035014707210791	0.017854123	77.6195525878515	0.0129642196196163	5.39262830509016	0.0159206441890741	-76.9158	45.842	NORTHERN FORESTS	MIXED WOOD SHIELD
2436	Iowa City, IA._-91.6076_41.7522	-0.073804077224834	-0.0982744271958745	0.521446608	-0.162702460757884	0.1499264705	77.9038475278096	0.00767290094285419	10.3339745404963	0.00962718248676412	-91.6076	41.7522	GREAT PLAINS	TEMPERATE PRAIRIES
3509	Itasca State Park, MN._-95.1709_47.1917	0.0352958749368115	-0.0512090258398896	0.01833086	-0.17366978596666	0.0110265155	57.4365393483104	0.0101864828536201	4.84294881557043	0.0137095331534152	-95.1709	47.1917	NORTHERN FORESTS	MIXED WOOD SHIELD
3877	Lake Bronson State Park, MN._-96.53_48.75	-0.0589063830477141	0.0305839747423859	0.4460092585	-0.0930355814260628	0.008906298	47.1243597826897	0.00751358481533238	3.87179492839063	0.0124072930492483	-96.53	48.75	NORTHERN FORESTS	MIXED WOOD SHIELD
2809	Letchworth State Park, NY._-77.9713_42.6573	0.113913540814723	-0.0423953579036877	0.5538289345	-0.0290331985481083	0.0449840545	76.613783295338	0.0101669294759067	8.27532066884809	0.0103558742279437	-77.9713	42.6573	EASTERN TEMPERATE FORESTS	MIXED WOOD PLAINS
2806	Long Point, ON, Canada._-80.3833_42.6167	-0.020708494649485	-0.0391381128364527	0.191771094	-0.189951231416335	0.010358267	84.6224375688113	0.0149767990979101	8.60608989573442	0.0120405481249019	-80.3833	42.6167	WATER	WATER
2702	Madison, WI._-89.3838_43.0899	-0.0616620242742688	0.0495511628843542	0.3037461335	-0.173650081502387	0.441007787	72.7169884534983	0.00810280606442594	7.97820529597214	0.0104086043284585	-89.3838	43.0899	EASTERN TEMPERATE FORESTS	CENTRAL USA PLAINS
2025	Mary Gray Bird Sanctuary, IN._-85.2072_39.5765	0.0529086215245268	-0.080457894290854	0.5599972325	-0.243479154081794	0.045217891	96.9676299981582	0.00983655753694842	11.0474361078336	0.00645499523957852	-85.2072	39.5765	EASTERN TEMPERATE FORESTS	CENTRAL USA PLAINS
2463	Mercer, NJ._-74.7663_40.2694	0.0824403882107277	0.12397363722618	0.1391199665	-0.0805116367327779	0.519304594	103.441347923034	0.00660170105848971	12.194871987049	0.0195899557342822	-74.7663	40.2694	EASTERN TEMPERATE FORESTS	SOUTHEASTERN USA PLAINS
2282	Mohawk Dam, OH._-82.0821_40.4245	-0.0370320485858172	-0.120230665174173	0.228734324	0.0604334905253483	0.024761725	89.2653860312242	0.0079805807018018	10.7217950614838	0.00704442435780198	-82.0821	40.4245	EASTERN TEMPERATE FORESTS	OZARK/OUACHITA-APPALACHIAN FORESTS
2725	Monticello, NY._-74.6321_41.5684	-0.00611945533097171	0.0184225136127458	0.0030674855	-0.0511660485877655	0.0456341425	104.506411913114	0.00913020514559256	8.47980784462431	0.0156161794576793	-74.6321	41.5684	NORTHERN FORESTS	ATLANTIC HIGHLANDS
2546	Montour Preserve, PA._-76.5479_41.0632	0.0991598687133522	0.116588030809076	0.520965195	0.209340888338751	0.0854253705	92.5278862500802	0.00658522303580166	9.66955146413201	0.0116319707596482	-76.5479	41.0632	EASTERN TEMPERATE FORESTS	OZARK/OUACHITA-APPALACHIAN FORESTS
2792	Mud Lake, WI._-89.3044_43.4118	-0.0296604589482351	-0.0708662045245273	0.69125396	-0.0717427200400035	0.031795628	72.7169884534983	0.00810280606442594	7.97820529597214	0.0104086043284585	-89.3044	43.4118	EASTERN TEMPERATE FORESTS	CENTRAL USA PLAINS
2639	Muttontown, NY._-73.5352_40.853	0.0245889674263455	0.0563855329327115	0.006123566	-0.0964000483764206	0.478985039	98.2740399470696	0.00714889553836377	12.7785258866751	0.0214235244242866	-73.5352	40.853	EASTERN TEMPERATE FORESTS	MIXED WOOD PLAINS
2597	Niobrara Valley Preserve, NE._-100.03_42.78	-0.0571986783128466	0.257560444057401	0.0312060865	-0.178617904240146	0.0057139335	46.5820520722713	0.00636732050750376	8.55480782496623	0.00880671412596535	-100.03	42.78	GREAT PLAINS	WEST-CENTRAL SEMIARID PRAIRIES
2446	Noble Co._-85.4246_41.3961	-0.0400170498583041	-0.0625583541572765	0.758923927	-0.165934058283612	0.0345422525	82.3894243270923	0.00990210684305303	10.5012822128737	0.0105697729849744	-85.4246	41.3961	EASTERN TEMPERATE FORESTS	CENTRAL USA PLAINS
3090	North Essex Co._-70.9091_42.7052	-0.05902036484428	-0.0407627429173227	0.059171025	-0.00434229656190463	0.2037614885	99.4176299113494	0.0109433572082143	10.0192309996018	0.021519633818449	-70.9091	42.7052	EASTERN TEMPERATE FORESTS	MIXED WOOD PLAINS
2997	Northern Berkshire Co._-73.1254_42.6279	0.0198316811216398	0.0100088664335537	0.0645394365	-0.0259239929607024	0.055684668	100.991988934003	0.0111501552947142	8.1766027025162	0.017773309868941	-73.1254	42.6279	NORTHERN FORESTS	ATLANTIC HIGHLANDS
2883	Northern Kettle Moraine, WI._-88.1603_43.665	0.0741214056125156	0.0373737883447661	0.590883269	-0.0669466215329491	0.0267953955	67.5262831495358	0.00704672741696309	8.00192322765883	0.0125556170937673	-88.1603	43.665	EASTERN TEMPERATE FORESTS	CENTRAL USA PLAINS
2621	Olivet, MI._-84.9286_42.4628	-0.0407647516579524	0.0142335880889698	0.7083406165	-0.0274622692624609	0.0386075055	78.275321723559	0.0110138796769286	9.28141043139383	0.00880633518658472	-84.9286	42.4628	EASTERN TEMPERATE FORESTS	MIXED WOOD PLAINS
2707	Ottawa Co. - Grand River_-85.9317_43.0243	0.109953283568892	0.11577572456865	0.6309077025	0.0283319104231515	0.1255825815	75.3733987533129	0.0130448033320085	8.7294873626043	0.0117667440068453	-85.9317	43.0243	EASTERN TEMPERATE FORESTS	MIXED WOOD PLAINS
3256	Petroglyphs, ON, Canada._-78.1566_44.5881	0.171504712794163	-0.0185522479823258	0.0434424005	-0.084236600650474	0.012808856	80.3586553732554	0.0129214276798942	6.05416678150113	0.0147535390115666	-78.1566	44.5881	NORTHERN FORESTS	MIXED WOOD SHIELD
2174	Pioneers Park Nature Center, NE._-96.7966_40.7701	-0.06210971062188	0.00622842418060952	0.356308862	-0.164262276499401	0.2332878645	61.9858986251295	0.00370126458828375	11.0503207262462	0.00758671295823063	-96.7966	40.7701	GREAT PLAINS	TEMPERATE PRAIRIES
1843	Powell Gardens, MO._-94.03_38.9441	-0.0714959678314558	0.39236444527613	0.7181611065	0.00127597081649085	0.0651967265	88.4878220328918	0.00609453835776402	13.5272438525676	0.00644766976663989	-94.03	38.9441	GREAT PLAINS	TEMPERATE PRAIRIES
2909	Providence Co._-71.5167_41.8667	-0.148028699576845	0.0758953636051597	0.0129315145	-0.00319838901348026	0.422956409	105.25480962411	0.0107600268231008	10.4711540270215	0.0222222721878541	-71.5167	41.8667	EASTERN TEMPERATE FORESTS	MIXED WOOD PLAINS
2367	Quail Hollow, Hartville, OH._-81.3291_40.8898	-0.00579640919148959	-0.182695733054682	0.4588285665	-0.0314144175343342	0.4304509125	86.1798091729482	0.00667982866324152	10.5230771194284	0.0120493514055259	-81.3291	40.8898	EASTERN TEMPERATE FORESTS	MIXED WOOD PLAINS
3056	Ramsey Co._-93.1667_45.0903	0.00540070982970174	0.0234484380147305	0.057015813	-0.173315738111136	0.6787725875	65.055770381903	0.00947279191879196	7.17467958995929	0.0121454135712357	-93.1667	45.0903	EASTERN TEMPERATE FORESTS	MIXED WOOD PLAINS
2464	Raritan Canal, NJ._-74.5557_40.4297	0.028035381582427	-0.00654713029742338	0.143857419	-0.0809768300785081	0.515388549	103.441347923034	0.00660170105848971	12.194871987049	0.0195899557342822	-74.5557	40.4297	EASTERN TEMPERATE FORESTS	SOUTHEASTERN USA PLAINS
2877	Rochester, MN._-92.4242_44.0323	0.0707456027060143	-0.00352648135718397	0.607689067	-0.0529227626042766	0.218884496	69.009296033627	0.00811922942667843	7.67467964063279	0.0109747821034341	-92.4242	44.0323	EASTERN TEMPERATE FORESTS	MIXED WOOD PLAINS
2625	Rondeau Provincial Park, ON, Canada._-81.9284_42.3015	0.00535110376498536	0.102751033012942	0.0744884645	-0.188836875245739	0.0064179245	80.1897449065477	0.012681247007691	9.53525659678361	0.00941800403864117	-81.9284	42.3015	EASTERN TEMPERATE FORESTS	MIXED WOOD PLAINS
2970	Sandhill/Seneca, WI._-90.1126_44.3656	0.0750272946847165	-0.0435731703030717	0.1353116525	-0.147607771468478	0.020727265	69.9996807773908	0.0038791823773997	7.35032064868854	0.0109004273426343	-90.1126	44.3656	EASTERN TEMPERATE FORESTS	MIXED WOOD PLAINS
2541	Sandy Creek, PA._-80.036_41.3183	0.0900862301174642	0.048375522370554	0.236797234	0.2433411864746	0.0372280255	89.2012835893876	0.00839394364038182	9.61346167708055	0.0109896106938735	-80.036	41.3183	EASTERN TEMPERATE FORESTS	MIXED WOOD PLAINS
2801	Seven Ponds Nature Center, MI._-83.2428_43.0014	0.133569350811265	-0.0612069149035486	0.484471663	-0.0845221682502168	0.1023473235	70.1823730040819	0.0115501984074035	8.7378206909276	0.0135850019311949	-83.2428	43.0014	EASTERN TEMPERATE FORESTS	MIXED WOOD PLAINS
1945	Shawnee State Park and Forest, OH._-83.1354_38.7122	0.0329621653503058	0.00150301747460789	0.083152508	0.0033477446611331	0.0465432885	94.0310912560194	0.00407119002083379	12.5096155926108	0.00605113736078911	-83.1354	38.7122	EASTERN TEMPERATE FORESTS	OZARK/OUACHITA-APPALACHIAN FORESTS
2036	Shenandoah National Park, VA._-78.4583_38.5915	0.0381647094046835	0.00250516263353	0.324682338	0.143366986883718	0.049144917	89.1455143109346	0.00451686263212105	13.1070514797496	0.00975879277675818	-78.4583	38.5915	EASTERN TEMPERATE FORESTS	OZARK/OUACHITA-APPALACHIAN FORESTS
2800	Shiawassee National Wildlife Refuge_-83.999_43.3579	0.126955986029989	0.217545852193937	0.470805214	-0.176441977377186	0.2634196645	67.6583343163515	0.0122126441688318	8.85801297696069	0.0136199186206632	-83.999	43.3579	EASTERN TEMPERATE FORESTS	CENTRAL USA PLAINS
3155	Sister Bay, WI._-87.1047_45.1783	0.0475786584319335	0.00968621623072622	0.1358891035	-0.15229188807485	0.028146209	69.5451934765547	0.00702271199661683	6.75064116635193	0.0127866073457076	-87.1047	45.1783	EASTERN TEMPERATE FORESTS	MIXED WOOD PLAINS
2713	Skunk's Misery_-81.7927_42.7151	0.0689425924881007	-0.00179454120127866	0.85684016	-0.0240295041976718	0.027447934	82.0179501191164	0.0148684043523584	8.96346166068449	0.0108466002385823	-81.7927	42.7151	EASTERN TEMPERATE FORESTS	MIXED WOOD PLAINS
2907	Southern Berkshire Co._-73.3333_42.15	0.0770292188812986	0.00369664438058632	0.0656658105	-0.00937395184988529	0.038790949	106.366989166309	0.00983321757569749	8.67243602726226	0.0187188995318242	-73.3333	42.15	NORTHERN FORESTS	ATLANTIC HIGHLANDS
2463	Southern Bucks Co._-74.9003_40.1813	-0.0670689477973706	0.0140972779891583	0.070386992	-0.0954375881070723	0.6857824095	103.441347923034	0.00660170105848971	12.194871987049	0.0195899557342822	-74.9003	40.1813	EASTERN TEMPERATE FORESTS	SOUTHEASTERN USA PLAINS
2534	Southwest Washtenaw, MI._-84.0389_42.1023	0.131691140639564	-0.0367462048450935	0.6396387355	-0.029294419627704	0.048929425	76.7092961852367	0.010377453372991	9.26570529662646	0.00921617128451716	-84.0389	42.1023	EASTERN TEMPERATE FORESTS	CENTRAL USA PLAINS
2550	Staten Island, NY._-74.147_40.572	-0.0660789417124353	-0.0913561017229133	0.000820156	-0.0803157564576762	0.5185889795	105.190386533737	0.00805747542009713	12.1413463465153	0.0199966764104265	-74.147	40.572	EASTERN TEMPERATE FORESTS	SOUTHEASTERN USA PLAINS
2818	Storrs, CT._-72.2333_41.8	-0.0801693284322726	0.120080736234744	0.036892915	0.0174856639735917	0.0861221425	105.247437776663	0.0100657280862245	10.4339745674664	0.0218922375930862	-72.2333	41.8	EASTERN TEMPERATE FORESTS	MIXED WOOD PLAINS
3050	Strandburg, SD._-96.7607_45.041	-0.0387888820388131	0.119349142454316	0.575161249	0.0422539382247981	0.016552734	50.6721162045231	0.00697226625485784	6.55929500738589	0.0107147125850903	-96.7607	45.041	GREAT PLAINS	TEMPERATE PRAIRIES
2548	Stroudsburg, PA._-75.2164_40.9897	0.0387630248047893	-0.140657268828322	0.0351732855	-0.102366543660338	0.14589208	104.74936065307	0.00837983458755901	10.5336540310811	0.018644154823909	-75.2164	40.9897	EASTERN TEMPERATE FORESTS	OZARK/OUACHITA-APPALACHIAN FORESTS
3167	Sunderland, ON, Canada._-79.1836_44.2567	0.105724255192519	0.112382913111803	0.515224791	0.0147103271279985	0.02284935	75.8467960663331	0.0135355680312236	7.02179501272547	0.0148543427614943	-79.1836	44.2567	EASTERN TEMPERATE FORESTS	MIXED WOOD PLAINS
3319	Tewaukon Lake, ND._-97.4587_45.9943	0.139746295038139	0.055086684592114	0.8100058245	0.0348825480382441	0.014706175	47.7685905656753	0.00165405781999494	5.81346161661144	0.0110560087255264	-97.4587	45.9943	GREAT PLAINS	TEMPERATE PRAIRIES
2987	Toronto (Centre), ON, Canada._-79.4524_43.6563	0.0057118741213105	0.00607467145345864	0.010591392	-0.154789835405643	0.620894744	71.6653859554193	0.0130450233083132	8.49807707793438	0.0144431118932182	-79.4524	43.6563	EASTERN TEMPERATE FORESTS	MIXED WOOD PLAINS
3077	Toronto (Toronto Entomologists' Assoc.), ON, Canada._-79.25_43.78	0.0134195248395045	-0.116218784431453	0.0793030665	-0.142704932088143	0.591690326	71.6653859554193	0.0130450233083132	8.49807707793438	0.0144431118932182	-79.25	43.78	EASTERN TEMPERATE FORESTS	MIXED WOOD PLAINS
3001	Truro, MA._-70.1167_42.0167	0.0818829204392031	-0.188691971812096	0.0008043809	-0.0396643168761647	0.070711405	112.463463419523	0.0100616578421605	10.7182694297188	0.0224963725992726	-70.1167	42.0167	EASTERN TEMPERATE FORESTS	MIXED WOOD PLAINS
2452	Twinsburg, OH._-81.5_41.26	0.0537648583403907	-0.0718854991789336	0.047239806	-0.115782156480603	0.46157524	85.6907067360022	0.00879799460281317	10.0990386374343	0.00955518985571809	-81.5	41.26	EASTERN TEMPERATE FORESTS	MIXED WOOD PLAINS
2637	Wallkill River National Wildlife Refuge, NJ._-74.5643_41.2007	0.158336672408596	0.12582994347124	0.1995291485	0.00973353211864293	0.0875647785	106.812501772856	0.00898668387401966	9.78750015128977	0.0183212941509963	-74.5643	41.2007	NORTHERN FORESTS	ATLANTIC HIGHLANDS
2819	Washington Co., RI._-71.7_41.4333	0.0448260873812577	0.125982976284341	0.0433859895	-0.00556071893170857	0.1134776595	99.886860761887	0.0110023157669163	11.1557694431156	0.0220229512437653	-71.7	41.4333	EASTERN TEMPERATE FORESTS	MIXED WOOD PLAINS
2970	Wazee, WI._-90.6597_44.277	0.099924634441413	0.0632699140461066	0.017014688	-0.158717647779651	0.0247291805	70.6503218030318	0.00457699537615953	7.59487195346409	0.0108800561435231	-90.6597	44.277	EASTERN TEMPERATE FORESTS	MIXED WOOD PLAINS
2123	West Anne Arundel Co._-76.6848_39.0783	0.107213610160441	0.101770890778361	0.03761007	-0.116268855715993	0.465187027	97.1237196494371	0.00578312193685195	13.1701925279668	0.0160303684628004	-76.6848	39.0783	EASTERN TEMPERATE FORESTS	SOUTHEASTERN USA PLAINS
2727	West Redding/Fairfield Co._-73.4489_41.2958	-0.0772143424336535	0.0174648289557174	0.0108384375	-0.0324655013123735	0.134478705	105.959937700858	0.00796851812076342	11.0746797162753	0.020567979060414	-73.4489	41.2958	EASTERN TEMPERATE FORESTS	MIXED WOOD PLAINS
3176	West Rutland, VT._-73.0379_43.5941	0.0293032373985912	0.00277363258103783	0.096918715	-0.0116697765915587	0.0822132425	86.689424649263	0.0125521194094453	7.54391039447047	0.0175775712303936	-73.0379	43.5941	NORTHERN FORESTS	ATLANTIC HIGHLANDS
2118	Western Garrett Co._-79.4833_39.4833	0.0227196317593975	-0.0481548217617302	0.1429629585	-0.0191510893612488	0.038371575	101.906411843422	0.00389559236601338	10.0016027445165	0.00651245338192405	-79.4833	39.4833	EASTERN TEMPERATE FORESTS	OZARK/OUACHITA-APPALACHIAN FORESTS
2026	Western Hamilton Co. Parks_-84.7306_39.188	0.00766114266311101	0.0186363822662195	0.1523336115	-0.124493930572899	0.337538379	94.2057710855435	0.00961188383463338	12.3926284057924	0.00651894091762029	-84.7306	39.188	EASTERN TEMPERATE FORESTS	SOUTHEASTERN USA PLAINS
2898	Western Niagara Co._-78.9154_43.2127	0.0119327142269373	0.0862996572984478	0.4507542015	-0.00258177555102507	0.1504278815	78.2182705891438	0.0122745435623536	9.36698733898214	0.0133107873793366	-78.9154	43.2127	EASTERN TEMPERATE FORESTS	MIXED WOOD PLAINS
2639	Westport/Fairfield, CT._-73.32_41.17	0.191501505419721	-0.0320659154329521	0.002350834	-0.0471411708209133	0.4449016335	105.959937700858	0.00796851812076342	11.0746797162753	0.020567979060414	-73.32	41.17	EASTERN TEMPERATE FORESTS	MIXED WOOD PLAINS
2624	Windsor, ON, Canada._-82.9638_42.2368	-0.00559348433377149	0.0175565077581553	0.5923135325	-0.238470723737482	0.265981341	78.4826937271998	0.0130943189569288	9.58942322944028	0.00933366632743944	-82.9638	42.2368	EASTERN TEMPERATE FORESTS	MIXED WOOD PLAINS
2602	Yankton, SD._-97.3702_42.9959	-0.051890524456842	0.00774856390197346	0.7492704305	-0.0229968635184303	0.025483934	56.0580138686376	0.0027620115154338	9.59006424463139	0.00818770847053767	-97.3702	42.9959	GREAT PLAINS	TEMPERATE PRAIRIES
2699	Yellow River State Forest, IA._-91.2109_43.1272	0.00755691480466479	-0.0170561401221007	0.299522414	-0.147073765872488	0.0368179535	72.8730782083212	0.00850871329511545	8.8208334883675	0.00837155505316776	-91.2109	43.1272	EASTERN TEMPERATE FORESTS	MIXED WOOD PLAINS
2206	ACAS, MD._-77.1931_39.4234	0.104256394991186	0.0315288986388273	0.5940181625	0.0664503562944341	0.095104665	95.609616967348	0.00607616334881329	13.1006412410106	0.0152144352221531	-77.1931	39.4234	EASTERN TEMPERATE FORESTS	SOUTHEASTERN USA PLAINS
2037	Airlie Center, VA._-77.7943_38.7566	0.0486764424534361	-0.0533860478844582	0.338544662	0.07332043051329	0.0817660185	91.6278860431451	0.0055999028544068	14.3221156342098	0.0128658330536244	-77.7943	38.7566	EASTERN TEMPERATE FORESTS	SOUTHEASTERN USA PLAINS
3266	Baker Ponds, NH._-71.9685_43.8898	0.180713649949638	-0.108525037235851	0.0118586765	0.023492369192423	0.0166342615	99.6112197240194	0.0128295165403626	6.20833344888897	0.016472190572974	-71.9685	43.8898	NORTHERN FORESTS	ATLANTIC HIGHLANDS
2911	Barnstable_-70.2996_41.7012	-0.0762925856278254	0.0190880277849908	0.009722223	-0.0361715656693128	0.306906998	113.781091823028	0.0100556214640543	11.2637822591246	0.022462654281769	-70.2996	41.7012	EASTERN TEMPERATE FORESTS	MISSISSIPPI ALLUVIAL AND SOUTHEAST USA COASTAL PLAINS
2210	Belleplain, NJ._-74.9333_39.25	0.146604703383471	0.1169798807513	0.0341207835	-0.0748312863013321	0.05642155	94.4894246260325	0.00214064643234218	13.0878207295035	0.0167319571524406	-74.9333	39.25	EASTERN TEMPERATE FORESTS	MISSISSIPPI ALLUVIAL AND SOUTHEAST USA COASTAL PLAINS
2538	Chagrin River Valley, OH._-81.4382_41.4784	0.369745398392615	0.00363697479067002	0.023766581	-0.0970059134938427	0.583127988	89.3576937883328	0.00797072958956192	10.1118591491324	0.0100873609792187	-81.4382	41.4784	EASTERN TEMPERATE FORESTS	MIXED WOOD PLAINS
1788	Chippokes Plantation State Park, VA._-76.7208_37.1397	0.18583302526846	-0.0290828246583577	0.1357260375	-0.0251642006388403	0.0548265115	102.682693824411	0.00318381937162895	15.2564105091569	0.0126335187663408	-76.7208	37.1397	EASTERN TEMPERATE FORESTS	MISSISSIPPI ALLUVIAL AND SOUTHEAST USA COASTAL PLAINS
2538	Cleveland Heights-Holden Arboretum, OH._-81.36_41.69	0.131428064459485	-0.194060007383702	0.019635586	-0.0628144381761479	0.400336978	85.8740400962341	0.0101354320428787	9.85000013595877	0.00833400697430039	-81.36	41.69	EASTERN TEMPERATE FORESTS	MIXED WOOD PLAINS
3086	Danby-Tinmouth, VT._-73.0833_43.35	0.0461615704989639	0.295957621247238	0.0858118765	0.0155975384363243	0.019474	96.3381429207631	0.0127589041491215	7.4714744831316	0.0168367198222918	-73.0833	43.35	NORTHERN FORESTS	ATLANTIC HIGHLANDS
1789	Delmarva Tip, VA._-75.9576_37.2024	0.123821429757304	0.0303598099128195	0.1480684835	-0.0843626905235094	0.0486386545	106.470514404086	0.00429285576874732	15.1506412604298	0.0134380212254052	-75.9576	37.2024	EASTERN TEMPERATE FORESTS	MISSISSIPPI ALLUVIAL AND SOUTHEAST USA COASTAL PLAINS
2549	Duke Farms, NJ._-74.6891_40.6096	0.0668378225995616	-0.0459846373955794	0.2292284795	0.0424537298855522	0.3586765055	110.092309407699	0.00929419424664042	10.7362181536901	0.0196299073706906	-74.6891	40.6096	EASTERN TEMPERATE FORESTS	SOUTHEASTERN USA PLAINS
3548	Fields Pond Audubon Center, ME._-68.7277_44.7384	0.123664843006621	0.121689177711654	0.039786584	0.0451527898668014	0.163176072	94.8881425521313	0.00836876304400113	6.51923091697674	0.0170378338028745	-68.7277	44.7384	EASTERN TEMPERATE FORESTS	MIXED WOOD PLAINS
2811	Finger Lakes National Forest, NY._-76.7908_42.529	0.0921602854503531	0.0540416759255061	0.4991189605	0.00920285284175905	0.0437752405	80.305450127675	0.0118062978781162	8.77788481935381	0.0112521394421037	-76.7908	42.529	EASTERN TEMPERATE FORESTS	MIXED WOOD PLAINS
2375	Furnace Hills, PA._-76.3027_40.2262	-0.0782974126420503	0.0245587255914859	0.569506018	-0.0278938695706841	0.1474841115	100.831091373395	0.0077199926612885	11.2644232617787	0.013032274208246	-76.3027	40.2262	EASTERN TEMPERATE FORESTS	SOUTHEASTERN USA PLAINS
2294	Galloway Township, NJ._-74.5605_39.485	0.0470533103200021	-0.0914998787018871	0.03642856	-0.0751349063618446	0.26265059	94.4894246260325	0.00214064643234218	13.0878207295035	0.0167319571524406	-74.5605	39.485	EASTERN TEMPERATE FORESTS	MISSISSIPPI ALLUVIAL AND SOUTHEAST USA COASTAL PLAINS
1699	Giles County, VA._-80.63_37.32	0.180554704747943	0.0559831720100809	0.1183580515	0.0271863933466256	0.0399731675	92.8775654247938	0.00430289259165109	11.4375002030522	0.0101402331624312	-80.63	37.32	EASTERN TEMPERATE FORESTS	OZARK/OUACHITA-APPALACHIAN FORESTS
2291	Harford Co._-76.2333_39.55	-0.131724577719676	-0.0485682309402274	0.306888609	-0.0434785984958739	0.2617484965	99.8516042843843	0.00562573455219769	12.0817309849394	0.01441049386982	-76.2333	39.55	EASTERN TEMPERATE FORESTS	SOUTHEASTERN USA PLAINS
2538	Holden Arboretum_-81.3592_41.6868	0.0313241492834297	0.0506330287625028	0.0455293225	-0.0379833200250188	0.2898479875	85.8740400962341	0.0101354320428787	9.85000013595877	0.00833400697430039	-81.3592	41.6868	EASTERN TEMPERATE FORESTS	MIXED WOOD PLAINS
2291	Holtwood_-76.315_39.9094	0.0858307973076914	-0.0207262358744053	0.513332296	0.0600622398646448	0.0928803815	99.8516042843843	0.00562573455219769	12.0817309849394	0.01441049386982	-76.315	39.9094	EASTERN TEMPERATE FORESTS	SOUTHEASTERN USA PLAINS
1952	Island Ford, VA._-78.6899_38.3519	0.0922135584090402	0.0723837415516097	0.323333416	0.0642480309673967	0.0466321905	88.9173091583145	0.00516628617126869	12.9381412669109	0.00825395410346038	-78.6899	38.3519	EASTERN TEMPERATE FORESTS	OZARK/OUACHITA-APPALACHIAN FORESTS
3435	Killarney Provincial Park, ON, Canada._-81.4046_46.0139	-0.052814033929099	-0.0495138853736942	0	-0.141552789775673	0.0018352695	68.9868601988523	0.0133464802403405	5.51217961158508	0.0131499725162709	-81.4046	46.0139	NORTHERN FORESTS	MIXED WOOD SHIELD
3441	Lake Dore, ON, Canada._-77.08_45.64	0.0875736274357788	0.0941702239818008	0.3430306075	0.277312251107824	0.018840372	72.3628218296247	0.0135887601673961	5.44775650368478	0.0155098282775777	-77.08	45.64	NORTHERN FORESTS	MIXED WOOD SHIELD
3262	Lake Placid, NY._-73.9833_44.25	0.00519305082246309	0.00586283630538142	0.003467694	-0.030976225953465	0.0237831135	95.222437393971	0.0121364888924342	4.85673084573295	0.0164855271394563	-73.9833	44.25	NORTHERN FORESTS	ATLANTIC HIGHLANDS
3548	Lower Penobscot, ME._-68.8999_44.5466	0.128705770422227	0.159821099990979	0.03417997	0.0418355488867114	0.051201914	94.8881425521313	0.00836876304400113	6.51923091697674	0.0170378338028745	-68.8999	44.5466	EASTERN TEMPERATE FORESTS	MIXED WOOD PLAINS
3073	MacGregor Point Provincial Park, ON, Canada._-81.4384_44.3731	0.00331450789212984	-0.122024353799233	0.5268391295	-0.0484781303500666	0.0256902445	94.3375015319922	0.0128002154598591	6.92756422353574	0.0135101019646896	-81.4384	44.3731	EASTERN TEMPERATE FORESTS	MIXED WOOD PLAINS
1870	Maidens, VA._-77.9575_37.6423	0.021624229996235	-0.112811768363115	0.137617983	0.0330650001177029	0.024221279	95.0448733886274	0.00614366978956336	14.553846408016	0.0101662708554833	-77.9575	37.6423	EASTERN TEMPERATE FORESTS	SOUTHEASTERN USA PLAINS
2821	Martha's Vineyard, MA._-70.6333_41.3667	-0.0440048458964832	0.0231800649604226	0.020533415	-0.042121409797947	0.064557373	111.936540165009	0.00953222381001863	11.6907053343617	0.022533662551729	-70.6333	41.3667	EASTERN TEMPERATE FORESTS	MISSISSIPPI ALLUVIAL AND SOUTHEAST USA COASTAL PLAINS
2100	McDonough Co._-90.7719_40.3683	-0.0254215182591743	-0.090396355528032	0.6634273005	-0.026741506957604	0.0318714795	87.1169885274691	0.00873784428215366	11.3564104635077	0.00559178778799037	-90.7719	40.3683	EASTERN TEMPERATE FORESTS	SOUTHEASTERN USA PLAINS
1194	Meeman-Shelby Forest, TN,_-90.0167_35.35	-0.31084948796553	-0.211154516860109	0.390417564	-0.198831293417349	0.04795081	107.155130186142	0.00470087296976767	16.9298079436024	-0.00186530138736065	-90.0167	35.35	EASTERN TEMPERATE FORESTS	SOUTHEASTERN USA PLAINS
1939	Monroe/Brown, IN._-86.3277_39.094	-0.156126601831083	-0.163711561609043	0.0223963685	-0.21821151389461	0.0164379755	98.2830146612265	0.00946736751985858	11.9891028187644	0.00617281223856629	-86.3277	39.094	EASTERN TEMPERATE FORESTS	SOUTHEASTERN USA PLAINS
1940	Muscatatuck National Wildlife Refuge, IN._-85.8_38.95	-0.00673697930375263	0.154459214334511	0.6112926055	-0.0263306311067804	0.07078211	103.933655567658	0.00919897724509345	12.762500235787	0.00692338088094859	-85.8	38.95	EASTERN TEMPERATE FORESTS	CENTRAL USA PLAINS
2041	Nassawango Creek, MD._-75.4714_38.229	-0.0218801803071626	-0.0044854389613402	0.2225286435	-0.0923084583363263	0.023077903	97.7227580165252	0.00249879702240811	14.1121797426962	0.0142515596831891	-75.4714	38.229	EASTERN TEMPERATE FORESTS	MISSISSIPPI ALLUVIAL AND SOUTHEAST USA COASTAL PLAINS
1868	Nelson Co._-78.8999_37.8323	-0.0852126002991528	0.155390210399307	0.1258194735	0.267826002988308	0.021619557	92.7086555854632	0.00546963512272926	14.2022438265192	0.0104025712464923	-78.8999	37.8323	EASTERN TEMPERATE FORESTS	OZARK/OUACHITA-APPALACHIAN FORESTS
2290	Nixon Park, PA._-76.7322_39.8854	-0.14587242773152	0.111762407545379	0.532989751	-0.0304834365180622	0.269215728	97.5070526966682	0.00806367664952588	12.0471156052051	0.0135801673948285	-76.7322	39.8854	EASTERN TEMPERATE FORESTS	SOUTHEASTERN USA PLAINS
2292	North Delaware (Wilmington), DE._-75.6416_39.7153	-0.0194655308695601	-0.124178683472594	0.069060854	-0.124127924860484	0.6014110765	101.031091576967	0.00444869675947566	12.4483976339778	0.0166287765477089	-75.6416	39.7153	EASTERN TEMPERATE FORESTS	MISSISSIPPI ALLUVIAL AND SOUTHEAST USA COASTAL PLAINS
2635	North Mountain, PA._-76.17_41.32	0.00134826921396328	0.0366271371893734	0.067055452	-0.0346937937178699	0.022617291	93.0282067091037	0.00834618969557228	9.23301298937832	0.014665719008604	-76.17	41.32	EASTERN TEMPERATE FORESTS	MIXED WOOD PLAINS
2038	Occoquan Bay, VA._-77.2404_38.6392	0.223062467049232	-0.0838117891440476	0.0093307245	-0.109695372064272	0.3556661565	91.6583349292095	0.00419052968609699	14.6477566393427	0.0135611017387096	-77.2404	38.6392	EASTERN TEMPERATE FORESTS	SOUTHEASTERN USA PLAINS
3166	Orillia, ON, Canada._-79.38_44.63	0.203184425559494	-0.134651021392053	0.311099763	0.00854593086689946	0.0610297345	90.0192325909932	0.0148007145374398	6.39423088738934	0.0150486476457896	-79.38	44.63	EASTERN TEMPERATE FORESTS	MIXED WOOD PLAINS
1361	Owl's Hill (Nashville), TN._-86.87_36.02	0.0127924386217645	-0.091690609918653	0.067449952	-0.129398917321633	0.305124434	108.876925069552	0.00953259610428184	15.5067310338744	0.000324125327456443	-86.87	36.02	EASTERN TEMPERATE FORESTS	SOUTHEASTERN USA PLAINS
2286	Powdermill Nature Reserve, PA._-79.2718_40.1602	0.208965343331608	-0.300407486848044	0.101895157	-0.0368192955795559	0.0412230005	103.040706982979	0.00455369348758567	10.5724361128389	0.0072881295001281	-79.2718	40.1602	EASTERN TEMPERATE FORESTS	OZARK/OUACHITA-APPALACHIAN FORESTS
2123	Prince George's Co._-76.8257_38.7354	0.0355920562244508	0.0993487642176014	0.127295476	-0.0602386772257827	0.26408437	98.5131429059383	0.00343469651700901	14.2525643153021	0.0154009112531167	-76.8257	38.7354	EASTERN TEMPERATE FORESTS	SOUTHEASTERN USA PLAINS
2106	Red Tail Farm, IN._-87.118_39.798	0.0428079784064017	0.00614458112466048	0.6070426315	-0.0468165377212049	0.033582278	96.8137838809918	0.011574594356707	12.5442309864104	0.00724178368615468	-87.118	39.798	EASTERN TEMPERATE FORESTS	CENTRAL USA PLAINS
2122	Reston, VA._-77.3372_38.953	0.0714867754161758	-0.00754074128930476	0.015477528	-0.10840693496562	0.6018440885	91.6583349292095	0.00419052968609699	14.6477566393427	0.0135611017387096	-77.3372	38.953	EASTERN TEMPERATE FORESTS	SOUTHEASTERN USA PLAINS
2547	Riverlands, PA._-76.1369_41.1023	0.0493223498542408	0.0480198429905983	0.192027131	0.0651179718712384	0.0740616335	93.0282067091037	0.00834618969557228	9.23301298937832	0.014665719008604	-76.1369	41.1023	EASTERN TEMPERATE FORESTS	OZARK/OUACHITA-APPALACHIAN FORESTS
1451	Roan Mountain_-82.1105_36.1067	0.0281596881678543	-0.0423718829860799	0.0373940395	-0.0328825379434325	0.0245342445	96.9173091061604	0.00295005179699468	12.0035258622315	0.0041579274566192	-82.1105	36.1067	EASTERN TEMPERATE FORESTS	OZARK/OUACHITA-APPALACHIAN FORESTS
1700	Roanoke, VA._-79.93_37.3	-0.115632011554382	0.108586950929025	0.107568435	-0.0139287238523431	0.42503583	92.4128219880737	0.00530360979418442	14.141346392174	0.0120431278903732	-79.93	37.3	EASTERN TEMPERATE FORESTS	OZARK/OUACHITA-APPALACHIAN FORESTS
1201	Sewanee, TN._-85.921_35.2043	-0.113960196021395	-0.083899692243344	0.3015691425	0.0217979585182166	0.037662494	123.628527251574	0.00886880506395487	15.0083335576674	-0.000422336459509648	-85.921	35.2043	EASTERN TEMPERATE FORESTS	OZARK/OUACHITA-APPALACHIAN FORESTS
1604	Shawnee Hills, IL._-88.58_37.6	-0.100663892044822	-0.0809345780057607	0.2785785625	-0.251903001875105	0.0233903725	102.644873848328	0.00860659474922445	14.2923079738155	0.00454941068610154	-88.58	37.6	EASTERN TEMPERATE FORESTS	SOUTHEASTERN USA PLAINS
1537	Southeast Guilford County, NC._-79.57_36.23	NA	NA	0.4058465335	0.0263092499228668	0.0376509635	94.4141041342265	0.000732211175807758	15.0862181748335	0.0122603105800481	-79.57	36.23	EASTERN TEMPERATE FORESTS	SOUTHEASTERN USA PLAINS
2726	Stormville, NY._-73.7511_41.59	0.0923334199471944	0.0599302250661225	0.1096336005	0.0547208746915929	0.1638916125	101.91057853821	0.00791271200659573	10.373397608622	0.0180115548263398	-73.7511	41.59	EASTERN TEMPERATE FORESTS	MIXED WOOD PLAINS
1286	Transylvania Co._-82.7369_35.2877	-0.272009417658725	-0.129854766144452	0.0662643005	0.0621472986428474	0.059155349	134.462822639025	0.00408141760756708	11.9846156211331	0.00265599440616619	-82.7369	35.2877	EASTERN TEMPERATE FORESTS	OZARK/OUACHITA-APPALACHIAN FORESTS
2123	Washington, DC._-76.9834_38.9001	0.0503899479948295	0.0472977260213205	0.004750429	-0.0954895293165604	0.871577136	98.5131429059383	0.00343469651700901	14.2525643153021	0.0154009112531167	-76.9834	38.9001	EASTERN TEMPERATE FORESTS	SOUTHEASTERN USA PLAINS
2452	Wolf Creek, OH._-81.7756_41.2083	0.017011886544245	-0.0725425534885557	0.2424697885	-0.0685488762627364	0.323346872	85.6907067360022	0.00879799460281317	10.0990386374343	0.00955518985571809	-81.7756	41.2083	EASTERN TEMPERATE FORESTS	MIXED WOOD PLAINS
3384	Seven Devils, ID._-116.4362_45.382	0.161890181321155	0.0917734434181159	0.0008373705	-0.138825077694658	0.004760853	57.6740394647305	0.00448085960411444	6.33461551189136	0.0110813648545946	-116.4362	45.382	NORTHWESTERN FORESTED MOUNTAINS	WESTERN CORDILLERA
2107	Boone County, IN._-86.25_39.95	NA	NA	0.399985129	-0.222897053423604	0.4745721265	93.540706665088	0.0106697792177301	11.9823720167415	0.00620715327742561	-86.25	39.95	EASTERN TEMPERATE FORESTS	CENTRAL USA PLAINS
1596	Buffalo Jump Prairie, MO._-93.48_37.77	NA	NA	0.5049425275	0.167801042142145	0.0205635255	90.6381425534685	0.00456991686866292	14.0701925439569	0.00517869861960827	-93.48	37.77	EASTERN TEMPERATE FORESTS	OZARK/OUACHITA-APPALACHIAN FORESTS
1281	Coffee Co._-86.1_35.4833	-0.18475411456734	0.147848493527101	0.4428444355	0.0390895876558643	0.0748689535	122.065066258113	0.00904496330309064	15.2724361765939	-0.00119647351877738	-86.1	35.4833	EASTERN TEMPERATE FORESTS	SOUTHEASTERN USA PLAINS
2698	Lake Meyer_-91.9039_43.1688	0.052053066659935	-0.0520590152924916	0.897955353	0.0304025712608326	0.027022531	76.5016035827307	0.00712942203444813	8.44551295720232	0.00816309127770333	-91.9039	43.1688	EASTERN TEMPERATE FORESTS	MIXED WOOD PLAINS
2355	LaSalle County, IL._-88.95_41.2	0.145366209820466	0.11811232284339	0.894488669	-0.0303018202646754	0.0382915365	79.2233989208173	0.00939249875072224	10.5522437603093	0.00744415840862076	-88.95	41.2	EASTERN TEMPERATE FORESTS	CENTRAL USA PLAINS
694	Mississippi Museum of Natural History, MS._-90.1_32.3995	NA	NA	0.11507148	-0.186550223811529	0.408614012	116.025643216876	0.00749858464737901	18.7080131264833	0.00056865662538586	-90.1	32.3995	EASTERN TEMPERATE FORESTS	SOUTHEASTERN USA PLAINS
1868	Blue Ridge Mountains, VA._-78.88_37.82	0.27676550591153	0.0275879876414958	0.110860693	0.269638215464692	0.0280935425	92.7086555854632	0.00546963512272926	14.2022438265192	0.0104025712464923	-78.88	37.82	EASTERN TEMPERATE FORESTS	OZARK/OUACHITA-APPALACHIAN FORESTS
1868	Blue Ridge Parkway, VA._-79.0326_37.9609	-0.0127517635891448	-0.0100439266138587	0.233808496	0.0849029864548658	0.0454345305	89.4503220671263	0.00497705922436456	12.9788463802244	0.00972664530040708	-79.0326	37.9609	EASTERN TEMPERATE FORESTS	OZARK/OUACHITA-APPALACHIAN FORESTS
1454	Forsyth Co._-80.2936_36.1369	NA	NA	0.10337927	-0.13534768037969	0.4969451165	94.6105787987128	0.00125298961659564	14.8137822665561	0.0125689642004831	-80.2936	36.1369	EASTERN TEMPERATE FORESTS	SOUTHEASTERN USA PLAINS
2218	Willow Slough_-121.7164_38.5827	-0.0258473765813189	0.050565907889075	0.8192443915	0.229297133890384	0.123912423	44.3301289209332	0.000755558538389739	16.4384618126429	0.0192670463903916	-121.7164	38.5827	MEDITERRANEAN CALIFORNIA	MEDITERRANEAN CALIFORNIA
2388	Bidwell Park, CA._-121.86_39.73	NA	NA	0.542682004	0.246482730432889	0.167649673	75.512501242284	-0.000513390668206368	15.4333335894805	0.0124464923106243	-121.86	39.73	MEDITERRANEAN CALIFORNIA	MEDITERRANEAN CALIFORNIA
2638	Greenbrook Sanctuary, NJ._-73.9327_40.9144	0.0137244998849954	0.071909197035839	0.000819858	-0.0982535673367695	0.747905815	98.2740399470696	0.00714889553836377	12.7785258866751	0.0214235244242866	-73.9327	40.9144	EASTERN TEMPERATE FORESTS	SOUTHEASTERN USA PLAINS
3419	Carlton County, MN._-92.34_46.64	0.0897495434113693	-0.0188546377032853	0.0874356625	-0.15459185724169	0.0536540905	63.40609074021	0.0106727222417317	5.2711539307657	0.0156890864511029	-92.34	46.64	NORTHERN FORESTS	MIXED WOOD SHIELD
2718	Chautauqua, NY._-79.1639_42.271	0.0806214278572941	0.0795357373260935	0.296605604	-0.0117854137198936	0.023672526	97.2333349814782	0.0144568751517176	8.48301292958263	0.0101887179734863	-79.1639	42.271	EASTERN TEMPERATE FORESTS	MIXED WOOD PLAINS
2547	Hazleton_-75.9167_40.9667	0.172385377268848	0.154086016267474	0.063403206	-0.131661837873762	0.1443026375	101.068591539676	0.00760098170847153	10.3849360696876	0.016836002800636	-75.9167	40.9667	EASTERN TEMPERATE FORESTS	OZARK/OUACHITA-APPALACHIAN FORESTS
3606	McNair, MN._-91.6717_47.32	-0.166057391743052	-0.0941722476684726	0	-0.181449820914822	0.006752993	64.1407062243193	0.0109691109270694	3.82371801479409	0.0154294575193701	-91.6717	47.32	NORTHERN FORESTS	MIXED WOOD SHIELD
4675	Nisbet Forest, SK, Canada._-106.15_52.9333	0.136910459242699	0.0741705439948129	0.3419354635	-0.0570340395082996	0.0098656725	34.7051287572353	0.00525990294233435	1.67916673627228	0.0132408502257163	-106.15	52.9333	NORTHERN FORESTS	BOREAL PLAIN
3077	Oshawa, ON, Canada._-78.9258_44.0181	0.0366912721893868	0.00822972674361676	0.6029226345	0.0494699652590238	0.070168528	76.7993602080223	0.0119892804451095	6.79903859253495	0.0144907905836628	-78.9258	44.0181	EASTERN TEMPERATE FORESTS	MIXED WOOD PLAINS
2812	Owego, NY._-76.2333_42.1	0.164378685571216	0.158424346709558	0.302843359	-0.00735955406856604	0.077501161	84.3772449004344	0.0119355253613088	8.80224375849446	0.0119292908052058	-76.2333	42.1	EASTERN TEMPERATE FORESTS	MIXED WOOD PLAINS
2813	Windsor, NY._-75.6167_42.1	0.0533743345624757	-0.0130960369486432	0.1516850665	-0.0343520007133557	0.0297990055	90.350321947	0.012162218625726	8.67179502924092	0.0114523772127927	-75.6167	42.1	EASTERN TEMPERATE FORESTS	MIXED WOOD PLAINS
3838	Western Wahkiakum Co._-123.5813_46.3568	0.0410250961719537	-0.011686503546779	0.015266795	0.228399602459293	0.0408517215	156.058977250965	0.00185409000339927	10.3230771009739	0.0140783340341891	-123.5813	46.3568	MARINE WEST COAST FOREST	MARINE WEST COAST FOREST
3513	Bear Trap Junction, MN._-92.4833_46.8833	-0.316054660222961	-0.199973578631169	0.0193192585	-0.170737819389864	0.0159805995	63.40609074021	0.0106727222417317	5.2711539307657	0.0156890864511029	-92.4833	46.8833	NORTHERN FORESTS	MIXED WOOD SHIELD
2889	Chippewa Nature Center, MI._-84.42_43.62	-0.525808501539374	-0.543127410429896	0.0853225795	-0.195167870680429	0.0520084605	65.8682703666198	0.0114032991396421	8.24871812414569	0.0118403009749322	-84.42	43.62	EASTERN TEMPERATE FORESTS	CENTRAL USA PLAINS
3428	Fox River-Seney, MI._-85.95_46.35	0.0818601112263737	0.0988914921497868	0.0164012795	-0.114351702327714	0.0241597545	71.2586549856724	0.00970305256900578	5.64967956489477	0.0128010320714544	-85.95	46.35	NORTHERN FORESTS	MIXED WOOD SHIELD
3831	Halifax, NS, Canada._-63.7_44.7667	-0.0863737363196711	-0.0773386060942141	6.06775e-05	-0.0219321825871692	0.1264846755	123.043592361303	0.0142740626980218	6.70256422949621	0.0156227003475069	-63.7	44.7667	NORTHERN FORESTS	ATLANTIC HIGHLANDS
3605	Laurentian Divide, MN._-92.5333_47.5667	0.113167442389828	-0.0292355137330039	0.0105324805	-0.184073722198689	0.0503864135	61.8391035420772	0.011525260447377	4.15224367341934	0.0147360921313446	-92.5333	47.5667	NORTHERN FORESTS	MIXED WOOD SHIELD
3574	Morton Elrod Memorial, MT._-114.1_46.53	0.0176468094118735	0.0393844981091386	0.2726833215	0.195525470324472	0.025182281	31.5339748576666	0.00430089871188114	6.26955140525332	0.0119238267055239	-114.1	46.53	NORTHWESTERN FORESTED MOUNTAINS	WESTERN CORDILLERA
3087	Mount Snow, VT._-72.8946_42.9682	0.0680999063469878	-0.0156460769001048	0.01201518	-0.0202244917572282	0.028427041	104.447758265031	0.0112713087634163	8.08333348841048	0.0179198332312999	-72.8946	42.9682	NORTHERN FORESTS	ATLANTIC HIGHLANDS
4788	Opal, AB, Canada._-113.23_53.99	NA	NA	0.692335469	0.0138540729818637	0.021031525	36.9714750143198	0.000885461989701246	3.04070519622511	0.0108109481936587	-113.23	53.99	NORTHERN FORESTS	BOREAL PLAIN
4503	Preeceville, SK, Canada._-102.8833_52.1667	-0.0721810365151132	0.101652614676952	0.306020275	0.0231268918479177	0.008225667	41.3400647151165	0.00625135217503471	0.62243592672241	0.0132823455868406	-102.8833	52.1667	NORTHERN FORESTS	BOREAL PLAIN
1729	Bryce Canyon, UT._-112.1576_37.6055	0.0139617937160003	-0.0454069276165152	0.021848575	0.221946305504286	0.008232565	26.5192312403367	-0.000567328969869548	7.68846166962519	0.0152223179704329	-112.1576	37.6055	NORTH AMERICAN DESERTS	COLD DESERTS
2794	Riveredge Nature Center, WI._-87.9793_43.3959	0.0265542247259885	0.177110374257459	0.556801894	-0.0852379614622709	0.1242672835	70.403527195637	0.00978347444038514	8.85544886057958	0.0129304614471375	-87.9793	43.3959	EASTERN TEMPERATE FORESTS	CENTRAL USA PLAINS
2161	Roosevelt National Forest, CO._-105.3254_40.3652	NA	NA	0.001154467	-0.126246531524615	0.0065184745	37.3903853037418	0.00105824040584984	7.77692322086734	0.0130535331181615	-105.3254	40.3652	NORTHWESTERN FORESTED MOUNTAINS	WESTERN CORDILLERA
2551	Brooklyn/Queens Counties, NY._-73.8446_40.6807	NA	NA	0.001115153	-0.0981756041965107	0.8285437085	98.2740399470696	0.00714889553836377	12.7785258866751	0.0214235244242866	-73.8446	40.6807	EASTERN TEMPERATE FORESTS	MIXED WOOD PLAINS
4021	Chumstick Mtn._-120.4509_47.6507	0.0252947046057524	0.116151650525116	0.006636197	-0.182628051668112	0.0209831385	33.0935903687555	0.00243636388047345	7.63301296754239	0.0130075710186514	-120.4509	47.6507	NORTHWESTERN FORESTED MOUNTAINS	WESTERN CORDILLERA
3635	Compton Co._-71.75_45.3333	-0.196129853378873	-0.0685668442086293	0.297232834	0.0183046027475222	0.041079837	99.8025657580449	0.010430277494244	5.36666675974639	0.0178199129536504	-71.75	45.3333	NORTHERN FORESTS	ATLANTIC HIGHLANDS
2451	Erie Co._-82.5667_41.3333	0.133945664204836	0.070564901040107	0.6042077605	-0.252596045997099	0.1170249255	81.7576938500771	0.00757762700765664	10.0375001565195	0.00547923584550936	-82.5667	41.3333	EASTERN TEMPERATE FORESTS	MIXED WOOD PLAINS
2623	Farmington Hills, MI._-83.3748_42.4697	-0.011511236972461	-0.0720335331708594	0.00517853	-0.20857868504454	0.9292968265	75.1080141312037	0.0125874936408048	9.95288477288798	0.010952872340672	-83.3748	42.4697	EASTERN TEMPERATE FORESTS	CENTRAL USA PLAINS
1782	Fincastle, VA._-79.8806_37.5122	0.141121054332626	0.0683025382396264	0.3105767865	0.233074748067854	0.038990802	88.3756427342693	0.00436079913851133	13.0262822572094	0.0104360845314289	-79.8806	37.5122	EASTERN TEMPERATE FORESTS	OZARK/OUACHITA-APPALACHIAN FORESTS
2024	Johnson County, IN._-86.07_39.48	0.208175313753757	0.119690941201507	0.8321612805	0.234197491173864	0.0913260735	98.2830146612265	0.00946736751985858	11.9891028187644	0.00617281223856629	-86.07	39.48	EASTERN TEMPERATE FORESTS	CENTRAL USA PLAINS
2704	Milwaukee County (Riverside), WI._-88.03_43.13	-0.0909981674441504	-0.18150763973108	0.113140868	-0.172072639944054	0.746297273	70.6128216630373	0.01008783791816	8.28205141076484	0.0121935405509142	-88.03	43.13	EASTERN TEMPERATE FORESTS	CENTRAL USA PLAINS
2529	North Park Village, IL._-87.68_41.98	NA	NA	0.0007142075	-0.234748914880144	0.6145456805	81.3673090140025	0.0112585043081301	10.4375001829213	0.00899242288181461	-87.68	41.98	EASTERN TEMPERATE FORESTS	CENTRAL USA PLAINS
2703	Retzer Nature Center, WI._-88.3_43	-0.107688387347252	-0.049609287701516	0.3316551335	-0.140876008168639	0.334563753	70.6128216630373	0.01008783791816	8.28205141076484	0.0121935405509142	-88.3	43	EASTERN TEMPERATE FORESTS	CENTRAL USA PLAINS
2048	San Bruno Mountain, CA._-122.4363_37.6875	NA	NA	0.003609738	-0.170767354324326	0.4170583825	42.9750007955978	3.88753700036796e-05	14.8980772281304	0.0198066445327792	-122.4363	37.6875	MEDITERRANEAN CALIFORNIA	MEDITERRANEAN CALIFORNIA
2547	Southern Carbon County, PA._-75.78_40.87	0.207208713363866	-0.160897265190839	0.116215505	-0.112990887865184	0.1014664325	101.068591539676	0.00760098170847153	10.3849360696876	0.016836002800636	-75.78	40.87	EASTERN TEMPERATE FORESTS	OZARK/OUACHITA-APPALACHIAN FORESTS
4018	Vashon Island, WA._-122.4605_47.422	-0.0976441058318276	-0.166638185151393	0.0103964805	-0.189520605745787	0.1798468115	89.0403860967893	0.0027504132173766	11.7625002123607	0.0135965217354972	-122.4605	47.422	MARINE WEST COAST FOREST	MARINE WEST COAST FOREST
2704	Wehr Nature Center, WI._-87.9791_42.9304	-0.0229347091804933	0.107400990879946	0.1421691025	-0.180960213976583	0.686718959	74.9038473780339	0.0111991764455818	8.87532069911368	0.0116580741980869	-87.9791	42.9304	EASTERN TEMPERATE FORESTS	CENTRAL USA PLAINS
3027	Camas National Wildlife Refuge, ID._-112.2643_43.9653	-0.179387406030317	0.123714915943501	0.387128321	0.0277973001490002	0.00959943	25.1647440370841	0.00530467758409468	7.55769243084181	0.0110992460043605	-112.2643	43.9653	NORTH AMERICAN DESERTS	COLD DESERTS
2663	Magic Mountain, ID._-114.2854_42.1889	0.0616063740206823	-0.0150023537530648	0.00043377975	-0.135574809474582	0.0042672555	25.6310901817603	0.00220182209766495	8.10865399277268	0.00996148582942944	-114.2854	42.1889	NORTH AMERICAN DESERTS	COLD DESERTS
2664	Trapper Creek, ID._-113.98_42.1678	0.149708843111776	0.013258836576491	0.0408104265	-0.097071043251804	0.0058652925	25.1750004593378	0.00234830164903687	8.45128219877967	0.0109302733552487	-113.98	42.1678	NORTH AMERICAN DESERTS	COLD DESERTS
1424	Byron Hatchery Watchable Wildlife Area, OK._-98.18_36.83	NA	NA	0.0979165575	-0.17124196058952	0.0407838305	72.5791677513566	0.00865313193138043	16.1115387122218	0.010115517490908	-98.18	36.83	GREAT PLAINS	SOUTH CENTRAL SEMIARID PRAIRIES
2524	Green Island-Lost Mound_-90.3435_42.1956	0.114577979102563	0.0971460045558866	0.53300526	0.0305416285163079	0.023999563	81.8330141198941	0.00875094591052562	9.33461557717946	0.00746842727121215	-90.3435	42.1956	EASTERN TEMPERATE FORESTS	MIXED WOOD PLAINS
1993	High Line Canal, CO._-104.8472_39.7243	-0.0802310806843644	0.109056929410913	0.053303488	-0.0814067199531503	0.60467123	34.5528851338686	0.00150480427053257	9.45192325561761	0.0158080982302768	-104.8472	39.7243	GREAT PLAINS	SOUTH CENTRAL SEMIARID PRAIRIES
3359	Hiram, ME._-70.73_43.92	NA	NA	0.008796731	0.0183016595395593	0.0316301055	96.5509633345482	0.0100765818714579	8.00032066104886	0.0178375265016412	-70.73	43.92	NORTHERN FORESTS	ATLANTIC HIGHLANDS
4435	Last Mountain Lake National Wildlife Area_-105.2396_51.4171	-0.145960391137132	-0.190708133679288	0.701929272	-0.00673268178048293	0.0077554925	31.322436409883	0.00147978580603684	3.04519237432247	0.013223251315665	-105.2396	51.4171	GREAT PLAINS	WEST-CENTRAL SEMIARID PRAIRIES
2755	Minidoka National Wildlife Refuge, ID._-113.3544_42.6479	0.0234065469479475	0.123315810297157	0.0821934505	0.0362920822236591	0.007552939	22.2028849663643	0.00193134117144355	8.87564119882882	0.0111682623307481	-113.3544	42.6479	NORTH AMERICAN DESERTS	COLD DESERTS
3419	Muriel Shirey Memorial, MN._-92.125_46.7767	NA	NA	0.018622242	-0.175368492591795	0.228213655	63.40609074021	0.0106727222417317	5.2711539307657	0.0156890864511029	-92.125	46.7767	NORTHERN FORESTS	MIXED WOOD SHIELD
2171	Rowe Sanctuary, NE._-98.88_40.62	0.186315960536929	0.17706880849078	0.772376442	-0.0722326171467434	0.019343216	56.8891034187415	0.00526636885117504	10.6900642503483	0.00235514546738328	-98.88	40.62	GREAT PLAINS	SOUTH CENTRAL SEMIARID PRAIRIES
3449	Sentinel Rock State Park, VT._-71.9481_44.8286	-0.0112920035473494	0.0572124459399668	0.029269007	-0.0368233280422052	0.022085961	114.118271124669	0.0104198062405246	4.42596163708143	0.0180081819781758	-71.9481	44.8286	NORTHERN FORESTS	ATLANTIC HIGHLANDS
2703	Southern Kettle Moraine, WI._-88.53_42.88	NA	NA	0.5476058015	-0.105241341550176	0.0445238555	75.9775652342882	0.010158686769823	8.58269248874142	0.0105978951790266	-88.53	42.88	EASTERN TEMPERATE FORESTS	CENTRAL USA PLAINS
2882	Wautoma, WI._-89.25_44.07	NA	NA	0.3403817355	-0.136055415535143	0.049253956	67.7250014344851	0.00448019151994503	7.00064116857277	0.0112825638009847	-89.25	44.07	EASTERN TEMPERATE FORESTS	MIXED WOOD PLAINS
3509	Nevis, MN._-94.8437_46.985	0.053511186810568	0.118960056829224	0.1436998005	-0.14910119977948	0.025165639	59.8891034535108	0.00859005757012841	5.59551294955115	0.0140831624064143	-94.8437	46.985	NORTHERN FORESTS	MIXED WOOD SHIELD
3523	Whitefish Point, MI._-85.1347_46.6799	-0.0721257625020782	-0.00915716766063927	0.006025273	-0.108868250500047	0.0439540195	80.1445526709923	0.0103422972960722	4.89038470406563	0.0127825675842132	-85.1347	46.6799	NORTHERN FORESTS	MIXED WOOD SHIELD
3699	Bear Island_-91.9167_47.7833	NA	NA	0.000302386	-0.194448690983188	0.01627747	63.8762830633384	0.0108603863251796	3.28717954492626	0.0143369049529404	-91.9167	47.7833	NORTHERN FORESTS	MIXED WOOD SHIELD
3702	Cook Co._-90.3438_47.8548	-0.0707515289861916	0.0946153979334937	0.000116381	-0.206405208423057	0.0132347195	64.2253215098992	0.00908832293099019	3.22083339544061	0.0140750521313892	-90.3438	47.8548	NORTHERN FORESTS	MIXED WOOD SHIELD
3263	Elizabethtown, NY._-73.6_44.22	-0.125525141819919	0.0913279689740081	0.0338589775	0.110904513307889	0.0212271095	95.222437393971	0.0121364888924342	4.85673084573295	0.0164855271394563	-73.6	44.22	NORTHERN FORESTS	ATLANTIC HIGHLANDS
3254	Muskoka, ON, Canada._-79.6196_45.0219	0.081532604748681	0.0567662244489771	0.010621705	-0.114551514830691	0.0148870985	95.4397451327397	0.0156283413704689	6.15000011748037	0.0152016993001629	-79.6196	45.0219	NORTHERN FORESTS	MIXED WOOD SHIELD
3254	Severn Township, ON, Canada._-79.57_44.73	0.026085062567593	-0.0459512495107781	0.2655275515	-0.0319381940798812	0.026190071	91.0967962802985	0.0164509218978862	6.93685913140862	0.0149572352207103	-79.57	44.73	EASTERN TEMPERATE FORESTS	MIXED WOOD PLAINS
2027	Caesar Creek Lake, OH._-84.0582_39.4881	NA	NA	0.6295942095	-0.0272602421957495	0.0578582395	91.9996810998672	0.00823594550997779	12.3282053079934	0.00377512465054486	-84.0582	39.4881	EASTERN TEMPERATE FORESTS	CENTRAL USA PLAINS
2444	La Porte Co._-86.8252_41.6167	NA	NA	0.471903381	-0.162942352208586	0.1729346185	84.5506424414806	0.0113616501506306	10.3086540437518	0.0102320438571251	-86.8252	41.6167	EASTERN TEMPERATE FORESTS	MIXED WOOD PLAINS
2361	Allen Co._-85.0833_41.2167	NA	NA	0.610078382	-0.234144599885709	0.2476052215	82.3894243270923	0.00990210684305303	10.5012822128737	0.0105697729849744	-85.0833	41.2167	EASTERN TEMPERATE FORESTS	CENTRAL USA PLAINS
2048	San Francisco, CA._-122.4385_37.7643	NA	NA	0	-0.171455210016024	0.0023699075	42.9750007955978	3.88753700036796e-05	14.8980772281304	0.0198066445327792	-122.4385	37.7643	MEDITERRANEAN CALIFORNIA	MEDITERRANEAN CALIFORNIA
